time,x,y,z,yaw,throttle,roll_rate,pitch_rate,yaw_rate,x_ref,y_ref,z_ref,yaw_ref,mpc_time,ctrl_callback_time_history,metadata
4.76837158203125e-06,-0.41018709540367126,-1.3181681632995605,0.9461965560913086,0.22575033016739277,-0.9750915857765674,0.7999999999997357,-0.7999999999976035,0.7999999999937693,0.0,0.0,-0.6,0.0,0.023641586303710938,0.025486230850219727,Sim
0.0251924991607666,-0.41018709540367126,-1.3181681632995605,0.9461965560913086,0.22575033016739277,-0.9750915857765674,0.7999999999997357,-0.7999999999976035,0.7999999999937693,0.0,0.0,-0.6,0.0,0.00015115737915039062,0.0005996227264404297,1x Speed
0.02922511100769043,-0.4090442955493927,-1.3207216262817383,0.9460551738739014,0.2261404574984344,-0.9750915857768603,0.799999999999994,-0.7999999999999462,0.7999999999998629,0.0,0.0,-0.6,0.0,0.011295080184936523,0.012045860290527344,Horizon:3.0
0.041484832763671875,-0.4090442955493927,-1.3207216262817383,0.9460551738739014,0.2261404574984344,-0.9750915857768603,0.799999999999994,-0.7999999999999462,0.7999999999998629,0.0,0.0,-0.6,0.0,0.00015807151794433594,0.0006253719329833984,Num Steps:20
0.0491940975189209,-0.4082109332084656,-1.3222792148590088,0.9463720917701721,0.22629710707583947,-0.9750915857768655,0.7999999999999985,-0.7999999999999858,0.799999999999964,0.0,0.0,-0.6,0.0,0.012765884399414062,0.013462543487548828,No Pyjoules
0.06287741661071777,-0.4082109332084656,-1.3222792148590088,0.9463720917701721,0.22629710707583947,-0.9750915857768655,0.7999999999999985,-0.7999999999999858,0.799999999999964,0.0,0.0,-0.6,0.0,0.00016188621520996094,0.0005931854248046875,0
0.06898069381713867,-0.40634897351264954,-1.3250371217727661,0.9471002221107483,0.2265678329917426,-0.9750915857768486,0.7999999999999855,-0.7999999999998614,0.7999999999996474,0.0,0.0,-0.6,0.0,0.014089107513427734,0.014743566513061523,0
0.08399653434753418,-0.40634897351264954,-1.3250371217727661,0.9471002221107483,0.2265678329917426,-0.9750915857768486,0.7999999999999855,-0.7999999999998614,0.7999999999996474,0.0,0.0,-0.6,0.0,0.00013828277587890625,0.000545501708984375,0
0.08950161933898926,-0.4049109220504761,-1.3270924091339111,0.9478965401649475,0.22676386599973794,-0.9750915857767872,0.7999999999999381,-0.7999999999994106,0.7999999999984961,0.0,0.0,-0.6,0.0,0.014979362487792969,0.01574420928955078,0
0.10550189018249512,-0.4049109220504761,-1.3270924091339111,0.9478965401649475,0.22676386599973794,-0.9750915857767872,0.7999999999999381,-0.7999999999994106,0.7999999999984961,0.0,0.0,-0.6,0.0,0.00016880035400390625,0.0006334781646728516,0
0.10894107818603516,-0.4033222198486328,-1.3293179273605347,0.9489087462425232,0.22691125739032256,-0.9750915857765817,0.799999999999781,-0.7999999999979156,0.7999999999946726,0.0,0.0,-0.6,0.0,0.015079021453857422,0.015763044357299805,0
0.1250443458557129,-0.4033222198486328,-1.3293179273605347,0.9489087462425232,0.22691125739032256,-0.9750915857765817,0.799999999999781,-0.7999999999979156,0.7999999999946726,0.0,0.0,-0.6,0.0,0.00015044212341308594,0.000576019287109375,0
0.129133939743042,-0.40056854486465454,-1.3329979181289673,0.9507450461387634,0.2271410126437551,-0.9750915857753193,0.7999999999988273,-0.799999999988924,0.7999999999713634,0.0,0.0,-0.6,0.0,0.008780956268310547,0.009608745574951172,0
0.1389756202697754,-0.40056854486465454,-1.3329979181289673,0.9507450461387634,0.2271410126437551,-0.9750915857753193,0.7999999999988273,-0.799999999988924,0.7999999999713634,0.0,0.0,-0.6,0.0,0.00017070770263671875,0.0006420612335205078,0
0.14914870262145996,-0.3972938358783722,-1.3370864391326904,0.9529180526733398,0.2274049983974924,-0.9750915857756896,0.7999999999991195,-0.7999999999916502,0.7999999999783218,0.0,0.0,-0.6,0.0,0.005845785140991211,0.006816387176513672,0
0.15901923179626465,-0.3961372375488281,-1.3385239839553833,0.9537590146064758,0.22749138917398692,-0.9750915857754542,0.7999999999989482,-0.7999999999900107,0.7999999999740167,0.0,0.0,-0.6,0.0,0.0047435760498046875,0.005371570587158203,0
0.16922855377197266,-0.3949495553970337,-1.339998483657837,0.9546452164649963,0.2275833481572088,-0.975091585776853,0.7999999999999895,-0.7999999999998992,0.7999999999997379,0.0,0.0,-0.6,0.0,0.005181074142456055,0.005898237228393555,0
0.17915916442871094,-0.3924860656261444,-1.343058466911316,0.956543505191803,0.22771697243184297,-0.9750915857768659,0.7999999999999992,-0.7999999999999914,0.7999999999999775,0.0,0.0,-0.6,0.0,0.004157304763793945,0.004806041717529297,0
0.18937468528747559,-0.39109230041503906,-1.3446747064590454,0.9574831128120422,0.22781406701806867,-0.9750915857767802,0.7999999999999363,-0.7999999999993905,0.799999999998405,0.0,0.0,-0.6,0.0,0.003677845001220703,0.004216909408569336,0
0.19916343688964844,-0.3896706700325012,-1.3463249206542969,0.9584646821022034,0.22794468623446554,-0.9750915857768657,0.7999999999999988,-0.7999999999999888,0.7999999999999707,0.0,0.0,-0.6,0.0,0.003823995590209961,0.004541635513305664,0
0.20914363861083984,-0.39137521386146545,-1.3448889255523682,0.9560711979866028,0.22804827167151004,-0.9750915857768178,0.7999999999999641,-0.799999999999657,0.7999999999991055,0.0,0.0,-0.6,0.0,0.003751516342163086,0.0043642520904541016,0
0.21936821937561035,-0.3929918110370636,-1.343549370765686,0.9538032412528992,0.22814945249186508,-0.9750915857762407,0.7999999999995486,-0.7999999999957029,0.7999999999888434,0.0,0.0,-0.6,0.0,0.0040378570556640625,0.004931926727294922,0
0.22906970977783203,-0.395966112613678,-1.3411517143249512,0.9497209787368774,0.22833356716889833,-0.9750915857767115,0.7999999999998889,-0.799999999998948,0.7999999999972919,0.0,0.0,-0.6,0.0,0.004057168960571289,0.004761934280395508,0
0.23941969871520996,-0.39732736349105835,-1.3400872945785522,0.9478551745414734,0.22842663193082083,-0.9750915857745113,0.7999999999983243,-0.7999999999841698,0.7999999999593703,0.0,0.0,-0.6,0.0,0.015563726425170898,0.0162506103515625,0
0.255875825881958,-0.39732736349105835,-1.3400872945785522,0.9478551745414734,0.22842663193082083,-0.9750915857745113,0.7999999999983243,-0.7999999999841698,0.7999999999593703,0.0,0.0,-0.6,0.0,0.00014901161193847656,0.0005865097045898438,0
0.25913214683532715,-0.3998100459575653,-1.3382192850112915,0.9444578886032104,0.22860051789248204,-0.9750915857768673,0.7999999999999999,-0.7999999999999995,0.7999999999999986,0.0,0.0,-0.6,0.0,0.019803285598754883,0.020592212677001953,0
0.2800486087799072,-0.3998100459575653,-1.3382192850112915,0.9444578886032104,0.22860051789248204,-0.9750915857768673,0.7999999999999999,-0.7999999999999995,0.7999999999999986,0.0,0.0,-0.6,0.0,0.00016689300537109375,0.0006275177001953125,0
0.2893507480621338,-0.4035646617412567,-1.3355536460876465,0.9386661052703857,0.22893480394533294,-0.9750915857768636,0.7999999999999976,-0.7999999999999763,0.7999999999999418,0.0,0.0,-0.6,0.0,0.01956796646118164,0.020402193069458008,0
0.30997514724731445,-0.4035646617412567,-1.3355536460876465,0.9386661052703857,0.22893480394533294,-0.9750915857768636,0.7999999999999976,-0.7999999999999763,0.7999999999999418,0.0,0.0,-0.6,0.0,0.00017142295837402344,0.0006549358367919922,0
0.3191988468170166,-0.40622377395629883,-1.3341096639633179,0.9345667362213135,0.22928486760540273,-0.9750915857767427,0.7999999999999163,-0.7999999999991775,0.7999999999980288,0.0,0.0,-0.6,0.0,0.017222881317138672,0.01790595054626465,0
0.33734583854675293,-0.40622377395629883,-1.3341096639633179,0.9345667362213135,0.22928486760540273,-0.9750915857767427,0.7999999999999163,-0.7999999999991775,0.7999999999980288,0.0,0.0,-0.6,0.0,0.0001499652862548828,0.0005645751953125,0
0.33912205696105957,-0.40709352493286133,-1.3338370323181152,0.9329710602760315,0.22946014446143495,-0.9750915857768386,0.799999999999981,-0.7999999999998114,0.7999999999995521,0.0,0.0,-0.6,0.0,0.015462875366210938,0.016165971755981445,0
0.3556253910064697,-0.40709352493286133,-1.3338370323181152,0.9329710602760315,0.22946014446143495,-0.9750915857768386,0.799999999999981,-0.7999999999998114,0.7999999999995521,0.0,0.0,-0.6,0.0,0.0001544952392578125,0.0006127357482910156,0
0.35922670364379883,-0.40783563256263733,-1.3339570760726929,0.9310832023620605,0.22977755258417817,-0.9750915857768455,0.7999999999999858,-0.7999999999998587,0.7999999999996661,0.0,0.0,-0.6,0.0,0.013618707656860352,0.014251947402954102,0
0.37370920181274414,-0.40783563256263733,-1.3339570760726929,0.9310832023620605,0.22977755258417817,-0.9750915857768455,0.7999999999999858,-0.7999999999998587,0.7999999999996661,0.0,0.0,-0.6,0.0,0.0001442432403564453,0.0005662441253662109,0
0.3793520927429199,-0.4080592095851898,-1.3343474864959717,0.9302748441696167,0.22997846914687586,-0.9750915857768555,0.7999999999999924,-0.7999999999999238,0.7999999999998204,0.0,0.0,-0.6,0.0,0.01330113410949707,0.014132261276245117,0
0.39388513565063477,-0.4080592095851898,-1.3343474864959717,0.9302748441696167,0.22997846914687586,-0.9750915857768555,0.7999999999999924,-0.7999999999999238,0.7999999999998204,0.0,0.0,-0.6,0.0,0.000186920166015625,0.0006277561187744141,0
0.3991549015045166,-0.40800905227661133,-1.3353825807571411,0.929589569568634,0.23026502461286905,-0.9750915857768673,0.8,-0.7999999999999997,0.7999999999999994,0.0,0.0,-0.6,0.0,0.014861822128295898,0.015503883361816406,0
0.4149813652038574,-0.40800905227661133,-1.3353825807571411,0.929589569568634,0.23026502461286905,-0.9750915857768673,0.8,-0.7999999999999997,0.7999999999999994,0.0,0.0,-0.6,0.0,0.00014853477478027344,0.000553131103515625,0
0.41908693313598633,-0.4072444438934326,-1.3370195627212524,0.9292985796928406,0.2305294983585181,-0.9750915857768119,0.7999999999999652,-0.7999999999996524,0.79999999999919,0.0,0.0,-0.6,0.0,0.013032674789428711,0.013643741607666016,0
0.43301868438720703,-0.4072444438934326,-1.3370195627212524,0.9292985796928406,0.2305294983585181,-0.9750915857768119,0.7999999999999652,-0.7999999999996524,0.79999999999919,0.0,0.0,-0.6,0.0,0.00014400482177734375,0.0005741119384765625,0
0.4391510486602783,-0.4065045714378357,-1.3383915424346924,0.9294484853744507,0.23074049763119495,-0.9750915857768636,0.7999999999999978,-0.7999999999999775,0.7999999999999476,0.0,0.0,-0.6,0.0,0.012367010116577148,0.013051509857177734,0
0.45247721672058105,-0.4065045714378357,-1.3383915424346924,0.9294484853744507,0.23074049763119495,-0.9750915857768636,0.7999999999999978,-0.7999999999999775,0.7999999999999476,0.0,0.0,-0.6,0.0,0.00014019012451171875,0.000576019287109375,0
0.4592885971069336,-0.4050699770450592,-1.3408464193344116,0.9301530122756958,0.23100525748132333,-0.9750915857767748,0.7999999999999399,-0.7999999999994124,0.7999999999986328,0.0,0.0,-0.6,0.0,0.011873245239257812,0.012698173522949219,0
0.47222352027893066,-0.4050699770450592,-1.3408464193344116,0.9301530122756958,0.23100525748132333,-0.9750915857767748,0.7999999999999399,-0.7999999999994124,0.7999999999986328,0.0,0.0,-0.6,0.0,0.0001728534698486328,0.0006358623504638672,0
0.47923874855041504,-0.40371447801589966,-1.3427948951721191,0.9307726621627808,0.23117121248097505,-0.9750915857768314,0.7999999999999772,-0.7999999999997764,0.7999999999994867,0.0,0.0,-0.6,0.0,0.012907981872558594,0.013612747192382812,0
0.49317097663879395,-0.40371447801589966,-1.3427948951721191,0.9307726621627808,0.23117121248097505,-0.9750915857768314,0.7999999999999772,-0.7999999999997764,0.7999999999994867,0.0,0.0,-0.6,0.0,0.0001506805419921875,0.0005719661712646484,0
0.499147891998291,-0.40140244364738464,-1.346076488494873,0.9321081042289734,0.23143478872857845,-0.9750915857768082,0.7999999999998959,-0.7999999999996339,0.7999999999991763,0.0,0.0,-0.6,0.0,0.013798952102661133,0.014454126358032227,0
0.5138843059539795,-0.40140244364738464,-1.346076488494873,0.9321081042289734,0.23143478872857845,-0.9750915857768082,0.7999999999998959,-0.7999999999996339,0.7999999999991763,0.0,0.0,-0.6,0.0,0.000164031982421875,0.0006303787231445312,0
0.5193665027618408,-0.39968356490135193,-1.3485032320022583,0.9332786202430725,0.23160619543311595,-0.9750915857767002,0.7999999999993949,-0.7999999999988772,0.7999999999975913,0.0,0.0,-0.6,0.0,0.013945579528808594,0.014698028564453125,0
0.5342352390289307,-0.39968356490135193,-1.3485032320022583,0.9332786202430725,0.23160619543311595,-0.9750915857767002,0.7999999999993949,-0.7999999999988772,0.7999999999975913,0.0,0.0,-0.6,0.0,0.00015354156494140625,0.000614166259765625,0
0.5393459796905518,-0.39783185720443726,-1.3511136770248413,0.9346413612365723,0.2317910156381035,-0.9750915857768673,0.8,-0.8,0.8,0.0,0.0,-0.6,0.0,0.016324281692504883,0.017183303833007812,0
0.5568435192108154,-0.39783185720443726,-1.3511136770248413,0.9346413612365723,0.2317910156381035,-0.9750915857768673,0.8,-0.8,0.8,0.0,0.0,-0.6,0.0,0.0001838207244873047,0.0007262229919433594,0
0.5589919090270996,-0.3944834768772125,-1.3554444313049316,0.9368129968643188,0.23202488666956092,-0.9750915857768594,0.7999999999999954,-0.799999999999954,0.7999999999998918,0.0,0.0,-0.6,0.0,0.018358230590820312,0.01898050308227539,0
0.5782935619354248,-0.3944834768772125,-1.3554444313049316,0.9368129968643188,0.23202488666956092,-0.9750915857768594,0.7999999999999954,-0.799999999999954,0.7999999999998918,0.0,0.0,-0.6,0.0,0.00015211105346679688,0.0006036758422851562,0
0.5792145729064941,-0.3921049237251282,-1.3585360050201416,0.938480794429779,0.23218294471834633,-0.9750915857763314,0.7999999999996912,-0.7999999999969704,0.799999999992795,0.0,0.0,-0.6,0.0,0.02087259292602539,0.021500349044799805,0
0.6011807918548584,-0.3921049237251282,-1.3585360050201416,0.938480794429779,0.23218294471834633,-0.9750915857763314,0.7999999999996912,-0.7999999999969704,0.799999999992795,0.0,0.0,-0.6,0.0,0.00017714500427246094,0.0006644725799560547,0
0.6090738773345947,-0.3900328576564789,-1.3617615699768066,0.9390543699264526,0.23250723047795993,-0.9750915857758534,0.799999999999433,-0.7999999999944306,0.7999999999868116,0.0,0.0,-0.6,0.0,0.015799522399902344,0.01648879051208496,0
0.625786304473877,-0.3900328576564789,-1.3617615699768066,0.9390543699264526,0.23250723047795993,-0.9750915857758534,0.799999999999433,-0.7999999999944306,0.7999999999868116,0.0,0.0,-0.6,0.0,0.0001537799835205078,0.0006041526794433594,0
0.6290342807769775,-0.394441694021225,-1.357335090637207,0.9326356053352356,0.2327797715987336,-0.9750915857768453,0.7999999999999878,-0.7999999999998779,0.7999999999997173,0.0,0.0,-0.6,0.0,0.020548105239868164,0.021300792694091797,0
0.6506378650665283,-0.394441694021225,-1.357335090637207,0.9326356053352356,0.2327797715987336,-0.9750915857768453,0.7999999999999878,-0.7999999999998779,0.7999999999997173,0.0,0.0,-0.6,0.0,0.0001690387725830078,0.0006573200225830078,0
0.6590673923492432,-0.39919179677963257,-1.3528252840042114,0.9257477521896362,0.23313311571272552,-0.9750915857768673,0.8,-0.8,0.8,0.0,0.0,-0.6,0.0,0.01851058006286621,0.01918482780456543,0
0.6785213947296143,-0.39919179677963257,-1.3528252840042114,0.9257477521896362,0.23313311571272552,-0.9750915857768673,0.8,-0.8,0.8,0.0,0.0,-0.6,0.0,0.00017023086547851562,0.0006535053253173828,0
0.6794872283935547,-0.4011215567588806,-1.3511245250701904,0.9229662418365479,0.23332492442158595,-0.9750915857761144,0.7999999999994885,-0.7999999999954321,0.7999999999896974,0.0,0.0,-0.6,0.0,0.01675248146057129,0.01742696762084961,0
0.6973681449890137,-0.4011215567588806,-1.3511245250701904,0.9229662418365479,0.23332492442158595,-0.9750915857761144,0.7999999999994885,-0.7999999999954321,0.7999999999896974,0.0,0.0,-0.6,0.0,0.00016546249389648438,0.0006539821624755859,0
0.6990022659301758,-0.4026087522506714,-1.3498170375823975,0.9204217195510864,0.2334760584667623,-0.9750915857768239,0.7999999999999694,-0.7999999999997341,0.799999999999405,0.0,0.0,-0.6,0.0,0.01613473892211914,0.01679372787475586,0
0.7161059379577637,-0.4026087522506714,-1.3498170375823975,0.9204217195510864,0.2334760584667623,-0.9750915857768239,0.7999999999999694,-0.7999999999997341,0.799999999999405,0.0,0.0,-0.6,0.0,0.00015163421630859375,0.0005900859832763672,0
0.7191228866577148,-0.40435680747032166,-1.348472237586975,0.917288601398468,0.23376631236058024,-0.9750915857768636,0.7999999999999974,-0.7999999999999774,0.7999999999999498,0.0,0.0,-0.6,0.0,0.015753984451293945,0.016391515731811523,0
0.7358028888702393,-0.40435680747032166,-1.348472237586975,0.917288601398468,0.23376631236058024,-0.9750915857768636,0.7999999999999974,-0.7999999999999774,0.7999999999999498,0.0,0.0,-0.6,0.0,0.00014448165893554688,0.0005741119384765625,0
0.7391245365142822,-0.40521955490112305,-1.3479688167572021,0.9157100915908813,0.23393343010593673,-0.9750915857768646,0.799999999999998,-0.7999999999999837,0.7999999999999642,0.0,0.0,-0.6,0.0,0.01521158218383789,0.015855789184570312,0
0.7552988529205322,-0.40521955490112305,-1.3479688167572021,0.9157100915908813,0.23393343010593673,-0.9750915857768646,0.799999999999998,-0.7999999999999837,0.7999999999999642,0.0,0.0,-0.6,0.0,0.0001704692840576172,0.0006299018859863281,0
0.7592675685882568,-0.40600723028182983,-1.3477981090545654,0.9138694405555725,0.23422906865003043,-0.975091585776863,0.7999999999999969,-0.7999999999999736,0.7999999999999428,0.0,0.0,-0.6,0.0,0.01513361930847168,0.015896320343017578,0
0.7754755020141602,-0.40600723028182983,-1.3477981090545654,0.9138694405555725,0.23422906865003043,-0.975091585776863,0.7999999999999969,-0.7999999999999736,0.7999999999999428,0.0,0.0,-0.6,0.0,0.00018644332885742188,0.0007450580596923828,0
0.7792391777038574,-0.4061506986618042,-1.3480677604675293,0.9129272103309631,0.23443221339278505,-0.9750915857768482,0.7999999999999869,-0.7999999999998867,0.7999999999997546,0.0,0.0,-0.6,0.0,0.013518095016479492,0.01434326171875,0
0.7939586639404297,-0.4061506986618042,-1.3480677604675293,0.9129272103309631,0.23443221339278505,-0.9750915857768482,0.7999999999999869,-0.7999999999998867,0.7999999999997546,0.0,0.0,-0.6,0.0,0.00016450881958007812,0.0006258487701416016,0
0.7991323471069336,-0.4059898853302002,-1.3489692211151123,0.9120748043060303,0.23475769989146197,-0.9750915857765206,0.7999999999997778,-0.7999999999979949,0.7999999999956944,0.0,0.0,-0.6,0.0,0.014350414276123047,0.015003442764282227,0
0.8144824504852295,-0.4059898853302002,-1.3489692211151123,0.9120748043060303,0.23475769989146197,-0.9750915857765206,0.7999999999997778,-0.7999999999979949,0.7999999999956944,0.0,0.0,-0.6,0.0,0.0001609325408935547,0.0006213188171386719,0
0.8191533088684082,-0.4056399464607239,-1.349886417388916,0.9118841290473938,0.2349191886119619,-0.9750915857741741,0.7999999999983392,-0.7999999999846856,0.7999999999671931,0.0,0.0,-0.6,0.0,0.012193441390991211,0.012869596481323242,0
0.8323266506195068,-0.4056399464607239,-1.349886417388916,0.9118841290473938,0.2349191886119619,-0.9750915857741741,0.7999999999983392,-0.7999999999846856,0.7999999999671931,0.0,0.0,-0.6,0.0,0.00016021728515625,0.0006253719329833984,0
0.8392539024353027,-0.40457409620285034,-1.3517667055130005,0.911939263343811,0.2351862354432032,-0.975091585776867,0.7999999999999998,-0.7999999999999984,0.7999999999999966,0.0,0.0,-0.6,0.0,0.01483297348022461,0.01559591293334961,0
0.8551344871520996,-0.40457409620285034,-1.3517667055130005,0.911939263343811,0.2351862354432032,-0.975091585776867,0.7999999999999998,-0.7999999999999984,0.7999999999999966,0.0,0.0,-0.6,0.0,0.00019502639770507812,0.0007340908050537109,0
0.8591759204864502,-0.403584361076355,-1.353336215019226,0.9122328758239746,0.2353641122459475,-0.9750915857756816,0.7999999999994345,-0.7999999999940277,0.7999999999874345,0.0,0.0,-0.6,0.0,0.01672959327697754,0.01742410659790039,0
0.8769221305847168,-0.403584361076355,-1.353336215019226,0.9122328758239746,0.2353641122459475,-0.9750915857756816,0.7999999999994345,-0.7999999999940277,0.7999999999874345,0.0,0.0,-0.6,0.0,0.00016999244689941406,0.0006279945373535156,0
0.8791306018829346,-0.4017879366874695,-1.356119155883789,0.9131366014480591,0.23562075614251565,-0.9750915857768673,0.7999999999999998,-0.7999999999999995,0.7999999999999988,0.0,0.0,-0.6,0.0,0.014493942260742188,0.015141010284423828,0
0.8946342468261719,-0.4017879366874695,-1.356119155883789,0.9131366014480591,0.23562075614251565,-0.9750915857768673,0.7999999999999998,-0.7999999999999995,0.7999999999999988,0.0,0.0,-0.6,0.0,0.0001556873321533203,0.0006189346313476562,0
0.8991029262542725,-0.39954841136932373,-1.359415054321289,0.9144613742828369,0.23587414432102735,-0.9750915857765335,0.7999999999992858,-0.7999999999983503,0.7999999999967494,0.0,0.0,-0.6,0.0,0.011902093887329102,0.012510538101196289,0
0.9118976593017578,-0.39954841136932373,-1.359415054321289,0.9144613742828369,0.23587414432102735,-0.9750915857765335,0.7999999999992858,-0.7999999999983503,0.7999999999967494,0.0,0.0,-0.6,0.0,0.00014925003051757812,0.0005719661712646484,0
0.9191341400146484,-0.39774131774902344,-1.3619072437286377,0.9155020713806152,0.23606442121057664,-0.9750915857768068,0.7999999999999734,-0.7999999999997143,0.7999999999994107,0.0,0.0,-0.6,0.0,0.018362760543823242,0.0190732479095459,0
0.9384644031524658,-0.39774131774902344,-1.3619072437286377,0.9155020713806152,0.23606442121057664,-0.9750915857768068,0.7999999999999734,-0.7999999999997143,0.7999999999994107,0.0,0.0,-0.6,0.0,0.00015091896057128906,0.0005743503570556641,0
0.9393332004547119,-0.39579740166664124,-1.3645983934402466,0.9167343974113464,0.2362660244937044,-0.975091585776867,0.7999999999999984,-0.7999999999999995,0.7999999999999994,0.0,0.0,-0.6,0.0,0.016531944274902344,0.017214298248291016,0
0.9569563865661621,-0.39579740166664124,-1.3645983934402466,0.9167343974113464,0.2362660244937044,-0.975091585776867,0.7999999999999984,-0.7999999999999995,0.7999999999999994,0.0,0.0,-0.6,0.0,0.00016021728515625,0.0006508827209472656,0
0.9590556621551514,-0.39263319969177246,-1.368994951248169,0.9190198183059692,0.2364944194687725,-0.975091585776867,0.7999999999999999,-0.7999999999999986,0.7999999999999972,0.0,0.0,-0.6,0.0,0.02145099639892578,0.022131919860839844,0
0.9814906120300293,-0.39263319969177246,-1.368994951248169,0.9190198183059692,0.2364944194687725,-0.975091585776867,0.7999999999999999,-0.7999999999999986,0.7999999999999972,0.0,0.0,-0.6,0.0,0.00015115737915039062,0.0006265640258789062,0
0.9893360137939453,-0.3876565396785736,-1.3755791187286377,0.9224252700805664,0.2368289187819749,-0.9750915857767734,0.7999999999999565,-0.7999999999995859,0.7999999999991387,0.0,0.0,-0.6,0.0,0.0215301513671875,0.022243738174438477,0
1.0118303298950195,-0.3876565396785736,-1.3755791187286377,0.9224252700805664,0.2368289187819749,-0.9750915857767734,0.7999999999999565,-0.7999999999995859,0.7999999999991387,0.0,0.0,-0.6,0.0,0.00016498565673828125,0.0006315708160400391,0
1.019167423248291,-0.3897404074668884,-1.3744733333587646,0.918922483921051,0.23710828120265118,-0.9750915857768664,0.7999999999999997,-0.7999999999999967,0.7999999999999933,0.0,0.0,-0.6,0.0,0.021502971649169922,0.022305965423583984,0
1.041649580001831,-0.3897404074668884,-1.3744733333587646,0.918922483921051,0.23710828120265118,-0.9750915857768664,0.7999999999999997,-0.7999999999999967,0.7999999999999933,0.0,0.0,-0.6,0.0,0.0001499652862548828,0.0005958080291748047,0
1.0491580963134766,-0.39547887444496155,-1.3700273036956787,0.9114515781402588,0.23745047794110824,-0.9750915857753609,0.7999999999994218,-0.7999999999935208,0.7999999999875168,0.0,0.0,-0.6,0.0,0.02283000946044922,0.02362799644470215,0
1.0730490684509277,-0.39547887444496155,-1.3700273036956787,0.9114515781402588,0.23745047794110824,-0.9750915857753609,0.7999999999994218,-0.7999999999935208,0.7999999999875168,0.0,0.0,-0.6,0.0,0.0001633167266845703,0.0006189346313476562,0
1.0792005062103271,-0.3997378945350647,-1.3671836853027344,0.9054304361343384,0.23782701340821602,-0.975091585776867,0.7999999999999982,-0.799999999999999,0.7999999999999987,0.0,0.0,-0.6,0.0,0.020009517669677734,0.020891666412353516,0
1.1266915798187256,-0.3997378945350647,-1.3671836853027344,0.9054304361343384,0.23782701340821602,-0.975091585776867,0.7999999999999982,-0.799999999999999,0.7999999999999987,0.0,0.0,-0.6,0.0,0.00018930435180664062,0.0008256435394287109,0
1.1291956901550293,-0.4039171040058136,-1.3655606508255005,0.8993403911590576,0.23830346005781602,-0.975091585776598,0.7999999999999035,-0.799999999998859,0.7999999999979629,0.0,0.0,-0.6,0.0,0.01992344856262207,0.02066802978515625,0
1.1500942707061768,-0.4039171040058136,-1.3655606508255005,0.8993403911590576,0.23830346005781602,-0.975091585776598,0.7999999999999035,-0.799999999998859,0.7999999999979629,0.0,0.0,-0.6,0.0,0.00014448165893554688,0.0005581378936767578,0
1.159233570098877,-0.40529629588127136,-1.3660961389541626,0.8967755436897278,0.2386707473127939,-0.9750915857761157,0.7999999999997383,-0.7999999999968531,0.7999999999945262,0.0,0.0,-0.6,0.0,0.017222881317138672,0.017958402633666992,0
1.1774468421936035,-0.40529629588127136,-1.3660961389541626,0.8967755436897278,0.2386707473127939,-0.9750915857761157,0.7999999999997383,-0.7999999999968531,0.7999999999945262,0.0,0.0,-0.6,0.0,0.0001556873321533203,0.0005979537963867188,0
1.178990364074707,-0.4057733416557312,-1.3672398328781128,0.8957313895225525,0.23889775061013885,-0.9750915857761745,0.7999999999997647,-0.7999999999971272,0.7999999999951077,0.0,0.0,-0.6,0.0,0.019412517547607422,0.020065784454345703,0
1.1994469165802002,-0.4057733416557312,-1.3672398328781128,0.8957313895225525,0.23889775061013885,-0.9750915857761745,0.7999999999997647,-0.7999999999971272,0.7999999999951077,0.0,0.0,-0.6,0.0,0.000148773193359375,0.0005903244018554688,0
1.2092139720916748,-0.40551573038101196,-1.3690489530563354,0.895060122013092,0.23911976337092372,-0.9750915857764121,0.7999999999998509,-0.7999999999981516,0.7999999999969177,0.0,0.0,-0.6,0.0,0.017415523529052734,0.01822185516357422,0
1.2276802062988281,-0.40551573038101196,-1.3690489530563354,0.895060122013092,0.23911976337092372,-0.9750915857764121,0.7999999999998509,-0.7999999999981516,0.7999999999969177,0.0,0.0,-0.6,0.0,0.00018286705017089844,0.0006735324859619141,0
1.2289295196533203,-0.40476635098457336,-1.371423602104187,0.8947682976722717,0.23978130938281425,-0.9750915857768664,0.7999999999999998,-0.7999999999999973,0.7999999999999952,0.0,0.0,-0.6,0.0,0.01980137825012207,0.02039933204650879,0
1.2496376037597656,-0.40476635098457336,-1.371423602104187,0.8947682976722717,0.23978130938281425,-0.9750915857768664,0.7999999999999998,-0.7999999999999973,0.7999999999999952,0.0,0.0,-0.6,0.0,0.00014710426330566406,0.0006046295166015625,0
1.2593448162078857,-0.4033679962158203,-1.3743071556091309,0.8943330645561218,0.24137124247067093,-0.9750915857768594,0.7999999999999977,-0.7999999999999753,0.7999999999999499,0.0,0.0,-0.6,0.0,0.020822525024414062,0.02164769172668457,0
1.2812228202819824,-0.4033679962158203,-1.3743071556091309,0.8943330645561218,0.24137124247067093,-0.9750915857768594,0.7999999999999977,-0.7999999999999753,0.7999999999999499,0.0,0.0,-0.6,0.0,0.0001544952392578125,0.0006079673767089844,0
1.2893834114074707,-0.4000653326511383,-1.3789856433868408,0.8928599953651428,0.24515180058450567,-0.9750915857768625,0.7999999999999738,-0.7999999999999807,0.7999999999999594,0.0,0.0,-0.6,0.0,0.01804494857788086,0.018782854080200195,0
1.308401107788086,-0.4000653326511383,-1.3789856433868408,0.8928599953651428,0.24515180058450567,-0.9750915857768625,0.7999999999999738,-0.7999999999999807,0.7999999999999594,0.0,0.0,-0.6,0.0,0.00018668174743652344,0.0006425380706787109,0
1.309342861175537,-0.3967898190021515,-1.3829705715179443,0.8911804556846619,0.2489143238274233,-0.9750915857768212,0.7999999999997565,-0.799999999999813,0.7999999999998619,0.0,0.0,-0.6,0.0,0.0054264068603515625,0.005942583084106445,0
1.3192594051361084,-0.3955458700656891,-1.3843717575073242,0.8904805183410645,0.2503074415640391,-0.9750915857768673,0.8,-0.8,0.8,0.0,0.0,-0.6,0.0,0.005084991455078125,0.005785465240478516,0
1.3290319442749023,-0.39422738552093506,-1.3858027458190918,0.8896948099136353,0.2517518448263523,-0.975091585776867,0.7999999999999999,-0.7999999999999996,0.7999999999999993,0.0,0.0,-0.6,0.0,0.0037407875061035156,0.00422358512878418,0
1.3391852378845215,-0.3911433815956116,-1.3888044357299805,0.8877026438713074,0.2548416900730687,-0.9750915857763752,0.7999999999978008,-0.7999999999980506,0.7999999999941712,0.0,0.0,-0.6,0.0,0.004119157791137695,0.00476384162902832,0
1.3490867614746094,-0.38949182629585266,-1.3903340101242065,0.8865598440170288,0.2564535776047072,-0.975091585776867,0.7999999999999973,-0.799999999999999,0.7999999999999983,0.0,0.0,-0.6,0.0,0.003740072250366211,0.004494905471801758,0
1.3590724468231201,-0.38776731491088867,-1.3918774127960205,0.8853104710578918,0.2580744404407062,-0.9750915857768659,0.7999999999999948,-0.799999999999994,0.799999999999968,0.0,0.0,-0.6,0.0,0.0033712387084960938,0.003922224044799805,0
1.3691761493682861,-0.38596996665000916,-1.3934274911880493,0.8839454650878906,0.2597207305255233,-0.9750915857749235,0.7999999999986811,-0.7999999999861745,0.799999999944662,0.0,0.0,-0.6,0.0,0.0037679672241210938,0.004486083984375,0
1.3790960311889648,-0.38215944170951843,-1.396532416343689,0.880892276763916,0.26312972593705913,-0.9750915857764078,0.7999999999994367,-0.7774493824104879,0.7999999999851782,0.0,0.0,-0.6,0.0,0.003425121307373047,0.004052639007568359,0
1.3894834518432617,-0.3801557719707489,-1.3980966806411743,0.879170835018158,0.26494897490492186,-0.9750915857767783,0.7999999999980917,-0.7372678986010767,0.7999999999958096,0.0,0.0,-0.6,0.0,0.0029735565185546875,0.0036449432373046875,0
1.3992908000946045,-0.37809041142463684,-1.3996405601501465,0.8773045539855957,0.26696368854228064,-0.9750915857768673,0.8,-0.6957620251263351,0.8,0.0,0.0,-0.6,0.0,0.0027756690979003906,0.0035228729248046875,0
1.409090518951416,-0.3792615532875061,-1.3971588611602783,0.8722166419029236,0.26919800671997807,-0.9750915857768634,0.799999999999994,-0.6569265943458049,0.7999999999997398,0.0,0.0,-0.6,0.0,0.002859354019165039,0.0034089088439941406,0
1.4193015098571777,-0.3812249004840851,-1.3923012018203735,0.8617544770240784,0.27443327820651875,-0.9750915857768673,0.7999999999999999,-0.5683345542393965,0.7999999999999998,0.0,0.0,-0.6,0.0,0.0026252269744873047,0.003397226333618164,0
1.4291279315948486,-0.3820136487483978,-1.3899049758911133,0.8563352227210999,0.27740228246197346,-0.975091585776569,0.7999999999994766,-0.5192491505645048,0.7999942159525155,0.0,0.0,-0.6,0.0,0.0027015209197998047,0.0034837722778320312,0
1.439316987991333,-0.38267239928245544,-1.387514352798462,0.8507535457611084,0.28060747533754493,-0.9750915857768605,0.7999999999999876,-0.4306792785662099,0.6764240396918431,0.0,0.0,-0.6,0.0,0.00850987434387207,0.009444475173950195,0
1.4490067958831787,-0.38267239928245544,-1.387514352798462,0.8507535457611084,0.28060747533754493,-0.9750915857768605,0.7999999999999876,-0.4306792785662099,0.6764240396918431,0.0,0.0,-0.6,0.0,0.00018286705017089844,0.0007257461547851562,0
1.4592618942260742,-0.38384395837783813,-1.3802499771118164,0.8328865766525269,0.29143955129435567,-0.9750915857763867,0.7999999999998616,-0.14042026409413458,0.21106378194016098,0.0,0.0,-0.6,0.0,0.008743524551391602,0.009639501571655273,0
1.469163417816162,-0.38384395837783813,-1.3802499771118164,0.8328865766525269,0.29143955129435567,-0.9750915857763867,0.7999999999998616,-0.14042026409413458,0.21106378194016098,0.0,0.0,-0.6,0.0,0.00017762184143066406,0.0007011890411376953,0
1.4793901443481445,-0.3838498592376709,-1.3752278089523315,0.8197507858276367,0.2996728364858801,-0.9750915857768673,0.8,0.23313038675095601,-0.5209616033097536,0.0,0.0,-0.6,0.0,0.005589008331298828,0.006474494934082031,0
1.4893269538879395,-0.3835991322994232,-1.3726297616958618,0.8127821087837219,0.30403690094658004,-0.9750915857768673,0.8,0.33730944760314074,-0.67151071813431,0.0,0.0,-0.6,0.0,0.004485607147216797,0.0050258636474609375,0
1.4993488788604736,-0.3832056224346161,-1.3699477910995483,0.8055546283721924,0.3085522480694415,-0.975091585776867,0.7999999999999992,0.4225053245356653,-0.7700087763690842,0.0,0.0,-0.6,0.0,0.004641532897949219,0.0053484439849853516,0
1.508988380432129,-0.3819788098335266,-1.3642737865447998,0.7902541160583496,0.3178518646583224,-0.9750915857768632,0.7999999999999821,0.545916601568233,-0.799999999998944,0.0,0.0,-0.6,0.0,0.0030481815338134766,0.0037527084350585938,0
1.5192413330078125,-0.3811466693878174,-1.3612581491470337,0.7822257280349731,0.3224902295925684,-0.9750915857649648,0.7999999999956386,0.6013455063830314,-0.7999999923913915,0.0,0.0,-0.6,0.0,0.002170562744140625,0.0027451515197753906,0
1.5292010307312012,-0.3801717162132263,-1.3581128120422363,0.7739284634590149,0.32706587046667857,-0.9750915857766879,0.7999999999996731,0.6540932435101516,-0.7999999999370504,0.0,0.0,-0.6,0.0,0.0021753311157226562,0.0028345584869384766,0
1.5392365455627441,-0.37772539258003235,-1.3514620065689087,0.7566155791282654,0.33566302995003355,-0.9750915857768345,0.79999999999993,0.7446714530015116,-0.7999999999974766,0.0,0.0,-0.6,0.0,0.002045869827270508,0.0025780200958251953,0
1.5491619110107422,-0.3762750029563904,-1.3479622602462769,0.7477137446403503,0.3395859520972846,-0.9750915857768673,0.7999999999999999,0.78007190602157,-0.7999999999999972,0.0,0.0,-0.6,0.0,0.0017178058624267578,0.0022859573364257812,0
1.5592732429504395,-0.37471678853034973,-1.3443374633789062,0.7387287616729736,0.34322024098408366,-0.9750915857768564,0.7999999999998473,0.7999999871296766,-0.7999999999999937,0.0,0.0,-0.6,0.0,0.0019011497497558594,0.00260162353515625,0
1.5691306591033936,-0.3730555772781372,-1.3405882120132446,0.7296856045722961,0.3465483218218319,-0.9750915857768278,0.7999999999998034,0.7999999999975769,-0.7999999999979726,0.0,0.0,-0.6,0.0,0.002213716506958008,0.002825498580932617,0
1.5793042182922363,-0.36944323778152466,-1.3327075242996216,0.7114810943603516,0.35227501629932806,-0.9750915857768621,0.7999999999999747,0.7999999999992211,-0.7999999999998163,0.0,0.0,-0.6,0.0,0.0016825199127197266,0.002280712127685547,0
1.5891883373260498,-0.3680263161659241,-1.3298256397247314,0.7030261158943176,0.3546818634690277,-0.9750915857768607,0.7877227863753021,0.799999999999478,-0.7999999999998686,0.0,0.0,-0.6,0.0,0.002418994903564453,0.0031909942626953125,0
1.5994222164154053,-0.36651352047920227,-1.3267905712127686,0.6945233345031738,0.3567707516432778,-0.9750915857768527,0.7007546607703984,0.7999999999980824,-0.7999999999997763,0.0,0.0,-0.6,0.0,0.003082275390625,0.003926753997802734,0
1.6093857288360596,-0.36490610241889954,-1.3235973119735718,0.6859711408615112,0.3585389461057388,-0.9750915857768668,0.6129118165060042,0.7999999999999967,-0.7999999999999953,0.0,0.0,-0.6,0.0,0.0033845901489257812,0.004436492919921875,0
1.6191024780273438,-0.36120495200157166,-1.31680428981781,0.6685128211975098,0.36102448301218837,-0.9750915857765551,0.4366526148557727,0.7999999999860974,-0.799999999993771,0.0,0.0,-0.6,0.0,0.003973245620727539,0.0048105716705322266,0
1.6293683052062988,-0.3592251241207123,-1.3131507635116577,0.6596742272377014,0.36167991764011753,-0.9750915857764123,0.3485788284550403,0.7999999962203317,-0.7999999999958319,0.0,0.0,-0.6,0.0,0.0025124549865722656,0.003503561019897461,0
1.6392273902893066,-0.35716381669044495,-1.309316635131836,0.650746762752533,0.3619623907266815,-0.9750915857768659,0.26016778357560083,0.7999999999884827,-0.7999999999999825,0.0,0.0,-0.6,0.0,0.002454996109008789,0.003203868865966797,0
1.6490731239318848,-0.35502299666404724,-1.3052915334701538,0.6417374014854431,0.36190826035676094,-0.9750915857758043,0.17124447081361013,0.7999982270987829,-0.7999999999864842,0.0,0.0,-0.6,0.0,0.0021810531616210938,0.002771615982055664,0
1.6593186855316162,-0.35051846504211426,-1.2966338396072388,0.6233201622962952,0.36084122399791013,-0.9750915857759298,-0.00982528169153625,0.761102037382759,-0.799999999993278,0.0,0.0,-0.6,0.0,0.0023927688598632812,0.003070354461669922,0
1.6691055297851562,-0.348164439201355,-1.2919894456863403,0.6138862371444702,0.3598273214034547,-0.9750915857767818,-0.09898506079784286,0.7359166263439836,-0.799999999999601,0.0,0.0,-0.6,0.0,0.0026865005493164062,0.003617525100708008,0
1.6791865825653076,-0.3457508981227875,-1.2871307134628296,0.604289174079895,0.3585417827723821,-0.97509158577683,-0.18600549279449222,0.7071550821526148,-0.7999999999998286,0.0,0.0,-0.6,0.0,0.002665996551513672,0.0033168792724609375,0
1.6895077228546143,-0.3431697487831116,-1.2821102142333984,0.5944341421127319,0.3570415928887838,-0.9750915857768532,-0.27042123247503574,0.6767272586167958,-0.7999999999999569,0.0,0.0,-0.6,0.0,0.0023932456970214844,0.0030291080474853516,0
1.6991608142852783,-0.3378759026527405,-1.2713967561721802,0.5741872191429138,0.3532961453888627,-0.9685517903133644,-0.42125322643134283,0.604617130509805,-0.7999999999999986,0.0,0.0,-0.6,0.0,0.0023267269134521484,0.002874135971069336,0
1.7092413902282715,-0.33517712354660034,-1.2656972408294678,0.5638017058372498,0.3511507514753314,-0.9583260852968808,-0.4955095190704713,0.5584647833307279,-0.7999999999956016,0.0,0.0,-0.6,0.0,0.0020875930786132812,0.0027627944946289062,0
1.7192463874816895,-0.332450270652771,-1.259767770767212,0.553225040435791,0.3488172183324568,-0.9478307417445696,-0.5641375845418923,0.51105180790803,-0.799999999983064,0.0,0.0,-0.6,0.0,0.0025501251220703125,0.003264904022216797,0
1.7291767597198486,-0.32970115542411804,-1.253609538078308,0.5424526929855347,0.3463149738124583,-0.9370510858144186,-0.6290120181666177,0.46278268627143687,-0.7999999999999903,0.0,0.0,-0.6,0.0,0.0024569034576416016,0.003050565719604492,0
1.7393114566802979,-0.32693618535995483,-1.2472202777862549,0.5314809083938599,0.3436401962140303,-0.9259573324658643,-0.6905513654086729,0.4137387343981584,-0.7999999999981552,0.0,0.0,-0.6,0.0,0.0019152164459228516,0.002530336380004883,0
1.7490766048431396,-0.3213811218738556,-1.2337489128112793,0.5089214444160461,0.33778088255644684,-0.9029471095312406,-0.7972809594487745,0.3141438423540113,-0.7999999999996161,0.0,0.0,-0.6,0.0,0.0025038719177246094,0.0032508373260498047,0
1.7592380046844482,-0.3184621334075928,-1.226741075515747,0.49722665548324585,0.33460404175379693,-0.886762396557107,-0.7999999979715554,0.275798160852092,-0.7999999998117373,0.0,0.0,-0.6,0.0,0.001810312271118164,0.002406597137451172,0
1.7692320346832275,-0.31554728746414185,-1.219505786895752,0.48532649874687195,0.33122576437947365,-0.870400673024618,-0.7999999999999999,0.23630860974490725,-0.7999999999999996,0.0,0.0,-0.6,0.0,0.0023593902587890625,0.0031223297119140625,0
1.7790536880493164,-0.3126424252986908,-1.2120468616485596,0.4732181429862976,0.32769614685098913,-0.8542584753128853,-0.7999999999983041,0.19606621581785907,-0.7999999999962922,0.0,0.0,-0.6,0.0,0.0026848316192626953,0.003259420394897461,0
1.789405345916748,-0.30748891830444336,-1.198512315750122,0.4493064284324646,0.3201097841889891,-0.8234814800250171,-0.7999999999999998,0.11344943066064239,-0.7999999999999994,0.0,0.0,-0.6,0.0,0.0028562545776367188,0.0035576820373535156,0
1.7991001605987549,-0.30523714423179626,-1.1924165487289429,0.43746331334114075,0.31605300485780835,-0.809318525646717,-0.7999999999990548,0.07632877061493018,-0.7999999999973055,0.0,0.0,-0.6,0.0,0.003034353256225586,0.003734111785888672,0
1.8091466426849365,-0.3061719834804535,-1.183397889137268,0.42288938164711,0.31184710998023674,-0.7934910520698765,-0.7999999999987244,0.018611483483160406,-0.799999999996082,0.0,0.0,-0.6,0.0,0.0031518936157226562,0.0039055347442626953,0
1.819324016571045,-0.3070572018623352,-1.174210786819458,0.4081607162952423,0.3075572524824639,-0.7782008818288702,-0.8,-0.042179031015859327,-0.8,0.0,0.0,-0.6,0.0,0.004121541976928711,0.004856109619140625,0
1.8296844959259033,-0.30851179361343384,-1.155441164970398,0.3780515491962433,0.2984993937338398,-0.7493290084606,-0.7999999999999999,-0.16509345880828302,-0.7999999999999998,0.0,0.0,-0.6,0.0,0.003325223922729492,0.0045166015625,0
1.8392767906188965,-0.30918174982070923,-1.1458332538604736,0.3628210127353668,0.2937612068938467,-0.7358157205341946,-0.7999999999999997,-0.22852937024099174,-0.7999999999999985,0.0,0.0,-0.6,0.0,0.0027565956115722656,0.003335714340209961,0
1.8492631912231445,-0.3098173439502716,-1.1360892057418823,0.34749549627304077,0.2888939031719799,-0.7230867006589867,-0.7999999999978177,-0.2924681639470931,-0.7999999999861773,0.0,0.0,-0.6,0.0,0.0027332305908203125,0.0034456253051757812,0
1.8591246604919434,-0.3104213774204254,-1.1262178421020508,0.3321351706981659,0.28392510520227765,-0.711081927748042,-0.7999999999958695,-0.35554449651516634,-0.7999999999800314,0.0,0.0,-0.6,0.0,0.0031168460845947266,0.0036475658416748047,0
1.8692059516906738,-0.3109961152076721,-1.1162282228469849,0.3167168200016022,0.27883357181379204,-0.6998752917321693,-0.7999999999958075,-0.4122331322100547,-0.7999999999797592,0.0,0.0,-0.6,0.0,0.0026471614837646484,0.0033118724822998047,0
1.879204273223877,-0.31206199526786804,-1.0959274768829346,0.28578874468803406,0.26832510507602875,-0.680575565358015,-0.7999999999914499,-0.511984423759553,-0.7999999999172864,0.0,0.0,-0.6,0.0,0.0022754669189453125,0.002960205078125,0
1.8893096446990967,-0.31255608797073364,-1.0856331586837769,0.27031755447387695,0.2629329859057111,-0.6719630854632134,-0.7999999999999987,-0.556953726548344,-0.7999999999999832,0.0,0.0,-0.6,0.0,0.001974821090698242,0.0025472640991210938,0
1.8992340564727783,-0.31322187185287476,-1.064903736114502,0.23918300867080688,0.2518156855488129,-0.6546615924591578,-0.7999999999989049,-0.6286941503949964,-0.7999999999922603,0.0,0.0,-0.6,0.0,0.0020761489868164062,0.0027618408203125,0
1.9090845584869385,-0.31351372599601746,-1.0544315576553345,0.22370418906211853,0.2460818186202141,-0.6471578314340868,-0.7999999999999993,-0.6578094631673881,-0.7999999999999963,0.0,0.0,-0.6,0.0,0.002788543701171875,0.003458738327026367,0
1.9192414283752441,-0.31377649307250977,-1.0438965559005737,0.20830535888671875,0.24026438158962202,-0.6403694102712245,-0.8,-0.6810444281314252,-0.7999999999999998,0.0,0.0,-0.6,0.0,0.002102375030517578,0.0026848316192626953,0
1.9292271137237549,-0.31400978565216064,-1.033305287361145,0.19303582608699799,0.23432886496585598,-0.6341373420582819,-0.7999999999999965,-0.699339106208381,-0.7999999999999792,0.0,0.0,-0.6,0.0,0.0017094612121582031,0.0023734569549560547,0
1.9392015933990479,-0.3143891394138336,-1.0119773149490356,0.1628320813179016,0.22224809750024646,-0.6234899126164278,-0.7999999994129549,-0.7198293821188022,-0.7999999936719384,0.0,0.0,-0.6,0.0,0.0016124248504638672,0.0021522045135498047,0
1.9491956233978271,-0.31453412771224976,-1.001248836517334,0.14792481064796448,0.2160977116344201,-0.61915040772292,-0.799999999840046,-0.7225407040128191,-0.7999999991281111,0.0,0.0,-0.6,0.0,0.0014462471008300781,0.002114534378051758,0
1.9592673778533936,-0.314500629901886,-0.9905415177345276,0.13300812244415283,0.20989815999864775,-0.6154329544937004,-0.8,-0.7191429496479912,-0.8,0.0,0.0,-0.6,0.0,0.0019795894622802734,0.0027112960815429688,0
1.9692058563232422,-0.3144364058971405,-0.9798003435134888,0.11825168132781982,0.20361422660090361,-0.6123429119104357,-0.7999999999999915,-0.710882629026351,-0.7999999999999866,0.0,0.0,-0.6,0.0,0.001623392105102539,0.0022878646850585938,0
1.9792766571044922,-0.31433942914009094,-0.9690295457839966,0.1036645695567131,0.1972791513108356,-0.6098620846687445,-0.7999999999940031,-0.6967744068565519,-0.7999999999750242,0.0,0.0,-0.6,0.0,0.0018360614776611328,0.0025086402893066406,0
1.9892852306365967,-0.31404659152030945,-0.9474121332168579,0.07503025233745575,0.18451705360692777,-0.6059417747809436,-0.7999999999999929,-0.6585586383238575,-0.7999999999999935,0.0,0.0,-0.6,0.0,0.001634836196899414,0.002250194549560547,0
1.9993009567260742,-0.31385138630867004,-0.93656986951828,0.06101056560873985,0.17810716475158128,-0.6054706752449751,-0.8,-0.6320148506152835,-0.7999999999999999,0.0,0.0,-0.6,0.0,0.001684427261352539,0.002330780029296875,0
2.009366273880005,-0.31362032890319824,-0.9257078170776367,0.047190193086862564,0.17171548549320156,-0.6035173289274703,-0.7999999780489253,-0.6030966752591002,-0.7999999858564772,0.0,0.0,-0.6,0.0,0.0014586448669433594,0.002267122268676758,0
2.019188404083252,-0.3133547902107239,-0.9148297905921936,0.03357361629605293,0.16530245465612323,-0.602066392331598,-0.7999999999999998,-0.5717395220959106,-0.7999999999999999,0.0,0.0,-0.6,0.0,0.0017392635345458984,0.002384662628173828,0
2.0294015407562256,-0.3125498294830322,-0.8931031823158264,0.006816538516432047,0.15249296729727949,-0.6002443243461888,-0.7999999999999705,-0.4962212280277857,-0.7999999999999542,0.0,0.0,-0.6,0.0,0.001374959945678711,0.001998424530029297,0
2.0393054485321045,-0.3120068311691284,-0.8822596669197083,-0.006314939819276333,0.1461359117724627,-0.5997227719119891,-0.7999999999962284,-0.45479443008645254,-0.7999999999964034,0.0,0.0,-0.6,0.0,0.0012581348419189453,0.0018954277038574219,0
2.049238681793213,-0.31142422556877136,-0.871410071849823,-0.01922970823943615,0.13977678876650915,-0.5994932490191508,-0.7999999999965435,-0.4108504100118741,-0.7999999999758246,0.0,0.0,-0.6,0.0,0.001428842544555664,0.0020499229431152344,0
2.0593457221984863,-0.31012654304504395,-0.8497000336647034,-0.04440095275640488,0.12713734532198542,-0.5994831833832125,-0.8,-0.31609522078518926,-0.7999999999799071,0.0,0.0,-0.6,0.0,0.002783060073852539,0.003849029541015625,0
2.0692410469055176,-0.3094085156917572,-0.8388450145721436,-0.05662506818771362,0.12085664540576807,-0.5998374497976247,-0.8,-0.2662041952875611,-0.7797911061962026,0.0,0.0,-0.6,0.0,0.002833843231201172,0.004288673400878906,0
2.079495668411255,-0.30864179134368896,-0.8279935121536255,-0.06863038241863251,0.11461208215999721,-0.6003443232290318,-0.7999999957631277,-0.21464613010272246,-0.7367848721990974,0.0,0.0,-0.6,0.0,0.0022699832916259766,0.0032744407653808594,0
2.0894830226898193,-0.3078254163265228,-0.8171467185020447,-0.08041754364967346,0.10838772067457508,-0.6009991813988428,-0.7999999999998868,-0.16269839204396627,-0.6940261325378391,0.0,0.0,-0.6,0.0,0.001967906951904297,0.0027751922607421875,0
2.0991432666778564,-0.30695897340774536,-0.8063061237335205,-0.0919872596859932,0.10218609689032251,-0.6018524234732264,-0.7999999999993392,-0.11030756069696361,-0.6514508380888547,0.0,0.0,-0.6,0.0,0.001459360122680664,0.002058744430541992,0
2.109229326248169,-0.3047294020652771,-0.7847817540168762,-0.11473910510540009,0.0898808893085735,-0.6036591752196002,-0.799999999992404,-0.0007924483302714202,-0.5680100367814689,0.0,0.0,-0.6,0.0,0.0015933513641357422,0.002351045608520508,0
2.1194286346435547,-0.3035334348678589,-0.7740402817726135,-0.12578590214252472,0.08377488568323511,-0.6042135810137319,-0.7999999999087615,0.05211451645876671,-0.5294638312101047,0.0,0.0,-0.6,0.0,0.003108978271484375,0.0041217803955078125,0
2.129255533218384,-0.30228281021118164,-0.7633152008056641,-0.13661670684814453,0.07771716020467571,-0.604861020304418,-0.799999999409744,0.10393982328655807,-0.4911342772835545,0.0,0.0,-0.6,0.0,0.0018277168273925781,0.0025644302368164062,0
2.1393449306488037,-0.3009762167930603,-0.752607524394989,-0.14723312854766846,0.07171329852097039,-0.6056610522061145,-0.7999999896360034,0.16128777599683566,-0.45302807925236777,0.0,0.0,-0.6,0.0,0.0012290477752685547,0.001886129379272461,0
2.1491341590881348,-0.29818591475486755,-0.7312518954277039,-0.1677469164133072,0.05984271418437126,-0.6075350956036062,-0.7999999892146284,0.27899177537947883,-0.37700847079520255,0.0,0.0,-0.6,0.0,0.0014019012451171875,0.002185344696044922,0
2.1595890522003174,-0.29670023918151855,-0.7206123471260071,-0.17769306898117065,0.05402129576653189,-0.6086191571349526,-0.799999988132007,0.3357829985076759,-0.33950821242404844,0.0,0.0,-0.6,0.0,0.002073049545288086,0.0030939579010009766,0
2.1693568229675293,-0.2951529026031494,-0.7100012898445129,-0.1874355673789978,0.04826674466867413,-0.6097884556463423,-0.7999999543224576,0.39019698522183266,-0.30233875194358195,0.0,0.0,-0.6,0.0,0.0018460750579833984,0.002754688262939453,0
2.18127703666687,-0.2933823764324188,-0.6994764804840088,-0.1970890909433365,0.04259223726697358,-0.6108952661270939,-0.7999990611722346,0.4442202277817581,-0.2656118039137223,0.0,0.0,-0.6,0.0,0.011676311492919922,0.016180753707885742,0
2.1988041400909424,-0.2933823764324188,-0.6994764804840088,-0.1970890909433365,0.04259223726697358,-0.6108952661270939,-0.7999990611722346,0.4442202277817581,-0.2656118039137223,0.0,0.0,-0.6,0.0,0.0009911060333251953,0.003905057907104492,0
2.2041404247283936,-0.2871505320072174,-0.6512618064880371,-0.23669135570526123,0.020924095207417146,-0.6144900425608854,-0.7999999997392596,0.6193374535549093,-0.12980963285539146,0.0,0.0,-0.6,0.0,0.007122993469238281,0.009332895278930664,0
2.214049816131592,-0.2871505320072174,-0.6512618064880371,-0.23669135570526123,0.020924095207417146,-0.6144900425608854,-0.7999999997392596,0.6193374535549093,-0.12980963285539146,0.0,0.0,-0.6,0.0,0.0005791187286376953,0.002156972885131836,0
2.2193150520324707,-0.28578224778175354,-0.6180932521820068,-0.2595268785953522,0.010822072546762174,-0.6141919216207719,-0.7999999999552437,0.6667005649498849,-0.0715660768956913,0.0,0.0,-0.6,0.0,0.0030798912048339844,0.004469871520996094,0
2.2293953895568848,-0.28496432304382324,-0.6017704606056213,-0.27055761218070984,0.0059936516135639575,-0.6143478129690816,-0.799999999781088,0.686790124975707,-0.04329562465380003,0.0,0.0,-0.6,0.0,0.0023674964904785156,0.0036978721618652344,0
2.2393434047698975,-0.28405797481536865,-0.5856197476387024,-0.2813337445259094,0.0012994089669792288,-0.6147268881079201,-0.7999999999999151,0.7045803046951459,-0.015526441550408634,0.0,0.0,-0.6,0.0,0.0023238658905029297,0.0031709671020507812,0
2.249260902404785,-0.2829749882221222,-0.56966632604599,-0.29194051027297974,-0.0032701197549888147,-0.6152047895472791,-0.7999999998913545,0.720949931836654,0.01186755092988227,0.0,0.0,-0.6,0.0,0.0019512176513671875,0.0029082298278808594,0
2.2590889930725098,-0.28055906295776367,-0.5382726788520813,-0.3124161958694458,-0.011983298959448035,-0.6163201105655273,-0.7999999999983683,0.7431933781458934,0.06460868815286645,0.0,0.0,-0.6,0.0,0.0015506744384765625,0.002171039581298828,0
2.269200563430786,-0.2792293131351471,-0.5228323936462402,-0.322297066450119,-0.016133696760729743,-0.6170135962879486,-0.799999999999978,0.7501261200424832,0.09019731864306141,0.0,0.0,-0.6,0.0,0.0015063285827636719,0.002142667770385742,0
2.2790932655334473,-0.27781960368156433,-0.5075637698173523,-0.33194518089294434,-0.020115162449435283,-0.6182952192917696,-0.7999999978269173,0.7547342613962369,0.11565306001961474,0.0,0.0,-0.6,0.0,0.0013649463653564453,0.0019989013671875,0
2.2895894050598145,-0.27633240818977356,-0.49246564507484436,-0.341329962015152,-0.023935442206185868,-0.6192517044506525,-0.7999999999990834,0.7552673173231134,0.13917739247091213,0.0,0.0,-0.6,0.0,0.0012841224670410156,0.001965045928955078,0
2.299379587173462,-0.2731338441371918,-0.46277424693107605,-0.35942745208740234,-0.031154474232045874,-0.6215178592268349,-0.7999999999991457,0.7463619218081471,0.18423004429194625,0.0,0.0,-0.6,0.0,0.0013294219970703125,0.0021567344665527344,0
2.309101104736328,-0.2714281678199768,-0.44818079471588135,-0.36814451217651367,-0.03455413029046423,-0.6228893749631689,-0.7999999999992068,0.7364402785685267,0.20575805580307152,0.0,0.0,-0.6,0.0,0.0016868114471435547,0.0024406909942626953,0
2.3192942142486572,-0.2695675492286682,-0.4337786138057709,-0.37671491503715515,-0.03777206971400078,-0.6242944251350602,-0.7999999999959861,0.7252996168775941,0.22638168875021925,0.0,0.0,-0.6,0.0,0.0014615058898925781,0.002198457717895508,0
2.3293137550354004,-0.26764219999313354,-0.4195444881916046,-0.3850698173046112,-0.04076767749638469,-0.6258162815900867,-0.7999999999935928,0.7103575343313837,0.24569487422090155,0.0,0.0,-0.6,0.0,0.001505136489868164,0.0023059844970703125,0
2.3390774726867676,-0.26565662026405334,-0.4054774045944214,-0.3932124376296997,-0.04361002430464496,-0.6274032920218833,-0.7999999999629873,0.6927940769137917,0.2641828459158142,0.0,0.0,-0.6,0.0,0.0013189315795898438,0.0026350021362304688,0
2.3492467403411865,-0.26151400804519653,-0.3778466284275055,-0.4088730216026306,-0.048803600817341954,-0.6308651794730887,-0.7999999998092745,0.651493342442989,0.2983952913520662,0.0,0.0,-0.6,0.0,0.0023620128631591797,0.003210783004760742,0
2.359245538711548,-0.25936171412467957,-0.3642823100090027,-0.41637831926345825,-0.05114394188929831,-0.6326994485812827,-0.7999999999999272,0.6341406395131863,0.31445720841743324,0.0,0.0,-0.6,0.0,0.0024881362915039062,0.003441333770751953,0
2.3691563606262207,-0.25715938210487366,-0.35088807344436646,-0.42368432879447937,-0.05329107378021106,-0.634577278903995,-0.7999999999994882,0.6162346988918697,0.32951235008829566,0.0,0.0,-0.6,0.0,0.0019009113311767578,0.0026128292083740234,0
2.3792426586151123,-0.2526189088821411,-0.324614018201828,-0.43770962953567505,-0.0571110239247784,-0.6385727509181963,-0.7999999998515666,0.5760408258139461,0.3567825708601276,0.0,0.0,-0.6,0.0,0.0016744136810302734,0.0023908615112304688,0
2.389282703399658,-0.25020235776901245,-0.31175097823143005,-0.44450441002845764,-0.05874761165215825,-0.6405079424637284,-0.7999999999955515,0.5556866745760032,0.3687977970414019,0.0,0.0,-0.6,0.0,0.001504659652709961,0.002223491668701172,0
2.399221658706665,-0.24774789810180664,-0.29906314611434937,-0.45111238956451416,-0.06017909505458413,-0.6424738833884636,-0.7999999999954911,0.5334038536117962,0.37948904053861204,0.0,0.0,-0.6,0.0,0.0014188289642333984,0.0020372867584228516,0
2.409184455871582,-0.24525947868824005,-0.28655338287353516,-0.45753493905067444,-0.06143502947334934,-0.6445070160479234,-0.799999999994726,0.5086489110697083,0.38900362334627164,0.0,0.0,-0.6,0.0,0.0018541812896728516,0.002798795700073242,0
2.4193637371063232,-0.24019037187099457,-0.2620789110660553,-0.4698355495929718,-0.06343445777650764,-0.6485673251583592,-0.7999999999805276,0.45747040914355486,0.40470682875626424,0.0,0.0,-0.6,0.0,0.0034570693969726562,0.004699230194091797,0
2.4292497634887695,-0.23761524260044098,-0.2501162588596344,-0.47568684816360474,-0.06417579749684162,-0.650527770557695,-0.7999999999424978,0.4304481009327296,0.410773362225615,0.0,0.0,-0.6,0.0,0.001995086669921875,0.0028166770935058594,0
2.439279079437256,-0.23501715064048767,-0.23833629488945007,-0.4813686013221741,-0.06472616581815922,-0.6525156416437752,-0.7999999997679847,0.40305339374480104,0.4155261213790505,0.0,0.0,-0.6,0.0,0.0018286705017089844,0.002680063247680664,0
2.4491894245147705,-0.23239988088607788,-0.22674165666103363,-0.4868835508823395,-0.06509584623162047,-0.6544434938802975,-0.7999999990575355,0.37387801395289594,0.4189861371410606,0.0,0.0,-0.6,0.0,0.0016300678253173828,0.002301931381225586,0
2.459223985671997,-0.2296786606311798,-0.21534863114356995,-0.49231472611427307,-0.06530111564613458,-0.6563179464897189,-0.7999999962435633,0.3435563210172821,0.42129564611659986,0.0,0.0,-0.6,0.0,0.0016379356384277344,0.0023698806762695312,0
2.4691107273101807,-0.2242092341184616,-0.19313356280326843,-0.5026956796646118,-0.06515851132895452,-0.6597756770170462,-0.7999999999999999,0.2814198480512667,0.4220754667274427,0.0,0.0,-0.6,0.0,0.0021514892578125,0.0028963088989257812,0
2.479210376739502,-0.22146600484848022,-0.1823156476020813,-0.5076547265052795,-0.0648254827040143,-0.6608576111145785,-0.7689160426474351,0.25640003545564855,0.41787107385350225,0.0,0.0,-0.6,0.0,0.0014181137084960938,0.002084016799926758,0
2.4895613193511963,-0.2187212109565735,-0.1716925948858261,-0.5124632716178894,-0.06432606161063714,-0.6620743173694396,-0.7090880905878417,0.223942198672857,0.4155544950457592,0.0,0.0,-0.6,0.0,0.0014472007751464844,0.0022568702697753906,0
2.499330997467041,-0.21324004232883453,-0.1510404646396637,-0.5216017365455627,-0.06293647217041441,-0.664386887788717,-0.5849877175108367,0.15758926103254495,0.4083030007420373,0.0,0.0,-0.6,0.0,0.0024437904357910156,0.0035364627838134766,0
2.509593963623047,-0.21050752699375153,-0.14101770520210266,-0.5259384512901306,-0.06197920364943552,-0.6654606136580691,-0.5198067647348128,0.12596697647907087,0.40292707369517844,0.0,0.0,-0.6,0.0,0.0024466514587402344,0.003981590270996094,0
2.5196001529693604,-0.20778270065784454,-0.13120009005069733,-0.5301363468170166,-0.060851417073170516,-0.6665354246972862,-0.45321571844571173,0.09425728338177787,0.39639827450906717,0.0,0.0,-0.6,0.0,0.004096269607543945,0.005486726760864258,0
2.5292294025421143,-0.2049667090177536,-0.12160138785839081,-0.5342905521392822,-0.059582495184806926,-0.6675446748527935,-0.3850025802831009,0.06429229239530262,0.3889018928056396,0.0,0.0,-0.6,0.0,0.0016674995422363281,0.0025217533111572266,0
2.5392324924468994,-0.19938454031944275,-0.10302964597940445,-0.5421931147575378,-0.05657887717610986,-0.6693185538386468,-0.2484156413560289,0.004028982583216067,0.37075040812949916,0.0,0.0,-0.6,0.0,0.0012886524200439453,0.0020017623901367188,0
2.5490872859954834,-0.19662222266197205,-0.0940583199262619,-0.5459485054016113,-0.05485751009478091,-0.670184077191877,-0.17937038178962553,-0.023963881635101835,0.3601709559973884,0.0,0.0,-0.6,0.0,0.0013546943664550781,0.0020363330841064453,0
2.5591342449188232,-0.1938808709383011,-0.08529938757419586,-0.5495748519897461,-0.05298814392924424,-0.6709926805289059,-0.11071917758355349,-0.05121041648658351,0.34857768442144654,0.0,0.0,-0.6,0.0,0.0014462471008300781,0.002210855484008789,0
2.5692973136901855,-0.1911638230085373,-0.07675328850746155,-0.5530763268470764,-0.05098737366724225,-0.6717314872847927,-0.04270360040729502,-0.07870764463653805,0.33608426939162184,0.0,0.0,-0.6,0.0,0.0016603469848632812,0.002494335174560547,0
2.5792367458343506,-0.18581195175647736,-0.060303058475255966,-0.5596719980239868,-0.04664625083494427,-0.6732087916547378,0.08895503598913053,-0.13112559637708854,0.30877620630032443,0.0,0.0,-0.6,0.0,0.0015454292297363281,0.002157449722290039,0
2.589491605758667,-0.18317891657352448,-0.05240108445286751,-0.5627891421318054,-0.04430879481863968,-0.673928168021963,0.151959976560873,-0.15525713979737163,0.2939805288152107,0.0,0.0,-0.6,0.0,0.0017669200897216797,0.0024874210357666016,0
2.5993337631225586,-0.18047240376472473,-0.04472643509507179,-0.5658808350563049,-0.04185579586372355,-0.6746031013557751,0.21873794008180406,-0.17543396183127266,0.27847094800738875,0.0,0.0,-0.6,0.0,0.0014812946319580078,0.0022165775299072266,0
2.609140157699585,-0.17903344333171844,-0.02947353385388851,-0.5719072818756104,-0.03923212457753228,-0.6750637061607982,0.24428571646327157,-0.21034300610540224,0.2621864233579757,0.0,0.0,-0.6,0.0,0.0015091896057128906,0.002131223678588867,0
2.6194145679473877,-0.17618690431118011,-0.00010886881500482559,-0.5833814740180969,-0.03358455642299386,-0.6759879559979582,0.2957567247784393,-0.2745615506686945,0.2268578173678482,0.0,0.0,-0.6,0.0,0.002663135528564453,0.003665447235107422,0
2.6291847229003906,-0.17478333413600922,0.014010808430612087,-0.5888375639915466,-0.03062665000330227,-0.6764012094558135,0.3184306934334571,-0.30352020932725965,0.20818127114456714,0.0,0.0,-0.6,0.0,0.0016486644744873047,0.0025424957275390625,0
2.639315128326416,-0.17339327931404114,0.027761690318584442,-0.594111442565918,-0.027603732060663938,-0.6768151567102787,0.3382719765026505,-0.33009813352957534,0.18898947836555574,0.0,0.0,-0.6,0.0,0.0018756389617919922,0.0026841163635253906,0
2.649418354034424,-0.172018364071846,0.04114985093474388,-0.599177360534668,-0.024503098929549355,-0.6771964924751445,0.355578577054389,-0.3549543435055636,0.16920105997557053,0.0,0.0,-0.6,0.0,0.00231170654296875,0.0035431385040283203,0
2.659205913543701,-0.16931778192520142,0.06684941798448563,-0.6087920069694519,-0.018090528486760606,-0.6779066069570808,0.3826288128453671,-0.39754118566851443,0.12798575152262592,0.0,0.0,-0.6,0.0,0.001889944076538086,0.002825498580932617,0
