time,x,y,z,yaw,throttle,roll_rate,pitch_rate,yaw_rate,x_ref,y_ref,z_ref,yaw_ref,mpc_time,ctrl_callback_time_history,metadata
4.76837158203125e-07,0.6219231486320496,-0.8489598035812378,0.9107596278190613,-0.2782908719917567,-0.9750915857768484,0.7999999999989643,0.7999999999988812,0.7999999999995366,0.0,0.0,-0.6,0.0,0.002683877944946289,0.003396272659301758,Sim
0.009712457656860352,0.6218269467353821,-0.8490328788757324,0.9106713533401489,-0.27829319128629426,-0.9750915857768573,0.7999999999994598,0.7999999999994216,0.7999999999997521,0.0,0.0,-0.6,0.0,0.0012302398681640625,0.0017616748809814453,1x Speed
0.01984119415283203,0.6217480897903442,-0.8490931391716003,0.9106464385986328,-0.2782909808100757,-0.9750915857768573,0.7999999999994549,0.799999999999416,0.7999999999997498,0.0,0.0,-0.6,0.0,0.0010974407196044922,0.0016677379608154297,Horizon:3.0
0.02990126609802246,0.621630847454071,-0.8491743803024292,0.9107784628868103,-0.27832183556388024,-0.9750915857768332,0.7999999999981197,0.799999999997953,0.7999999999991722,0.0,0.0,-0.6,0.0,0.0012919902801513672,0.001916646957397461,Num Steps:20
0.03969383239746094,0.6215924024581909,-0.8491948843002319,0.9109308123588562,-0.2783384911849459,-0.9750915857768316,0.7999999999980376,0.799999999997864,0.7999999999991375,0.0,0.0,-0.6,0.0,0.0014452934265136719,0.002016782760620117,No Pyjoules
0.04985189437866211,0.6215664148330688,-0.8492008447647095,0.911122739315033,-0.2783448217533809,-0.9750915857768221,0.7999999999975087,0.7999999999972818,0.7999999999989115,0.0,0.0,-0.6,0.0,0.0021293163299560547,0.003152132034301758,0
0.06016802787780762,0.6215832829475403,-0.8491979837417603,0.9113664627075195,-0.2783452500086492,-0.9750915857768312,0.7999999999980139,0.7999999999978366,0.7999999999991267,0.0,0.0,-0.6,0.0,0.0022170543670654297,0.003348827362060547,0
0.06989693641662598,0.6216131448745728,-0.8491839170455933,0.911662757396698,-0.27833961798110907,-0.9750915857768178,0.7999999999972645,0.7999999999970104,0.7999999999988067,0.0,0.0,-0.6,0.0,0.002399444580078125,0.00319671630859375,0
0.08002829551696777,0.6217101812362671,-0.8491235971450806,0.9124107956886292,-0.2783526179642496,-0.9750915857768343,0.7999999999981894,0.7999999999980304,0.7999999999992036,0.0,0.0,-0.6,0.0,0.0020411014556884766,0.0028162002563476562,0
0.0899500846862793,0.6217778325080872,-0.8490762114524841,0.912862241268158,-0.2783397379634018,-0.9750915857768282,0.7999999999978422,0.7999999999976481,0.7999999999990556,0.0,0.0,-0.6,0.0,0.0019233226776123047,0.002716541290283203,0
0.0999000072479248,0.6218576431274414,-0.8490195870399475,0.913362443447113,-0.27833382547774094,-0.9750915857768316,0.7999999999980373,0.7999999999978619,0.7999999999991392,0.0,0.0,-0.6,0.0,0.0015454292297363281,0.002252340316772461,0
0.10990452766418457,0.621948778629303,-0.8489534854888916,0.913909375667572,-0.27832822404335705,-0.9750915857768071,0.7999999999966833,0.79999999999637,0.7999999999985636,0.0,0.0,-0.6,0.0,0.0015342235565185547,0.002195596694946289,0
0.11984586715698242,0.6221590638160706,-0.8487918972969055,0.915128767490387,-0.27832346980670397,-0.9750915857768,0.7999999999962903,0.7999999999959387,0.7999999999984003,0.0,0.0,-0.6,0.0,0.0016884803771972656,0.0023107528686523438,0
0.1299138069152832,0.6223080158233643,-0.8486986756324768,0.9158021807670593,-0.2783367832521881,-0.9750915857768184,0.7999999999973135,0.7999999999970677,0.7999999999988354,0.0,0.0,-0.6,0.0,0.0016546249389648438,0.002313852310180664,0
0.13992094993591309,0.6226328611373901,-0.8484811186790466,0.9172773957252502,-0.27834091309269227,-0.9750915857767452,0.7999999999932634,0.7999999999926213,0.7999999999971142,0.0,0.0,-0.6,0.0,0.001744985580444336,0.0026006698608398438,0
0.14986753463745117,0.6228073835372925,-0.8483572006225586,0.9180799126625061,-0.2783431888511488,-0.97509158577678,0.7999999999951812,0.7999999999947277,0.7999999999979389,0.0,0.0,-0.6,0.0,0.0016434192657470703,0.0022628307342529297,0
0.15994620323181152,0.6229914426803589,-0.8482227921485901,0.918922483921051,-0.2783528647319959,-0.9750915857767822,0.7999999999953021,0.7999999999948647,0.7999999999979932,0.0,0.0,-0.6,0.0,0.0017232894897460938,0.0024199485778808594,0
0.16980957984924316,0.6231843829154968,-0.8480790853500366,0.9197917580604553,-0.27836657560801065,-0.975091585776803,0.7999999999964449,0.7999999999961224,0.7999999999984803,0.0,0.0,-0.6,0.0,0.0018029212951660156,0.0025091171264648438,0
0.17986083030700684,0.6233863234519958,-0.8479253053665161,0.9207003116607666,-0.27836234940519494,-0.9750915857768041,0.7999999999965004,0.7999999999961874,0.799999999998507,0.0,0.0,-0.6,0.0,0.0017898082733154297,0.002460956573486328,0
0.18993926048278809,0.6238527894020081,-0.8476004600524902,0.9226271510124207,-0.2783777415587874,-0.9750915857768436,0.7999999999986944,0.7999999999985902,0.7999999999994326,0.0,0.0,-0.6,0.0,0.001760244369506836,0.0025415420532226562,0
0.1998615264892578,0.6241168975830078,-0.8474306464195251,0.9236413240432739,-0.2783923591061388,-0.9750915857768553,0.7999999999993422,0.7999999999992954,0.7999999999997088,0.0,0.0,-0.6,0.0,0.001621246337890625,0.002232074737548828,0
0.20995640754699707,0.6243894696235657,-0.8472525477409363,0.9246890544891357,-0.2784139855453567,-0.9750915857768621,0.7999999999997187,0.7999999999997024,0.7999999999998719,0.0,0.0,-0.6,0.0,0.0017812252044677734,0.002496004104614258,0
0.21986603736877441,0.624958872795105,-0.8468714952468872,0.9268869757652283,-0.2784507030747532,-0.9750915857768653,0.7999999999998834,0.7999999999998785,0.7999999999999453,0.0,0.0,-0.6,0.0,0.002254009246826172,0.003244161605834961,0
0.23006868362426758,0.6252545714378357,-0.8466694951057434,0.9280351400375366,-0.2784543960506774,-0.9750915857768659,0.799999999999917,0.7999999999999141,0.7999999999999606,0.0,0.0,-0.6,0.0,0.003170490264892578,0.0042073726654052734,0
0.23997211456298828,0.6255578398704529,-0.8464596271514893,0.9292111992835999,-0.2784597814922218,-0.9750915857768662,0.799999999999945,0.7999999999999435,0.7999999999999731,0.0,0.0,-0.6,0.0,0.0022330284118652344,0.0031290054321289062,0
0.24982142448425293,0.6258662343025208,-0.8462415933609009,0.9304184913635254,-0.2784812764377991,-0.9750915857768662,0.7999999999999456,0.7999999999999444,0.7999999999999732,0.0,0.0,-0.6,0.0,0.0020449161529541016,0.002819061279296875,0
0.2599480152130127,0.625342845916748,-0.8465842604637146,0.9286790490150452,-0.2784900947568277,-0.9750915857768662,0.7999999999999445,0.7999999999999431,0.7999999999999731,0.0,0.0,-0.6,0.0,0.0018694400787353516,0.0025849342346191406,0
0.2700071334838867,0.6244157552719116,-0.8472140431404114,0.9255107045173645,-0.27852253853355263,-0.9750915857768544,0.799999999999287,0.7999999999992354,0.7999999999996866,0.0,0.0,-0.6,0.0,0.0018661022186279297,0.0027179718017578125,0
0.27985429763793945,0.6239864230155945,-0.8475008606910706,0.924079179763794,-0.27854479440903024,-0.9750915857768289,0.7999999999978802,0.7999999999976989,0.7999999999990913,0.0,0.0,-0.6,0.0,0.001737833023071289,0.002405881881713867,0
0.29004788398742676,0.6235804557800293,-0.8477684855461121,0.9227456450462341,-0.27855958811449116,-0.9750915857767884,0.7999999999956469,0.7999999999952506,0.7999999999981491,0.0,0.0,-0.6,0.0,0.0015959739685058594,0.0022437572479248047,0
0.2998158931732178,0.623195469379425,-0.8480173945426941,0.9215071201324463,-0.27857358244155606,-0.975091585776486,0.79999999997896,0.7999999999769859,0.7999999999909886,0.0,0.0,-0.6,0.0,0.0017387866973876953,0.002410411834716797,0
0.30995726585388184,0.6228303909301758,-0.8482502698898315,0.9203349947929382,-0.27857949555568434,-0.9750915857756047,0.7999999999304782,0.7999999999239132,0.7999999999698602,0.0,0.0,-0.6,0.0,0.0016818046569824219,0.0023789405822753906,0
0.31980037689208984,0.6221582293510437,-0.8486670851707458,0.9182610511779785,-0.27863484851012693,-0.9750915857768673,0.7999999999999978,0.7999999999999993,0.7999999999999977,0.0,0.0,-0.6,0.0,0.0017561912536621094,0.002460956573486328,0
0.32987356185913086,0.6218501329421997,-0.8488520979881287,0.9173564314842224,-0.27864289208221477,-0.975091585776864,0.7999999999998669,0.7999999999999681,0.7999999999998374,0.0,0.0,-0.6,0.0,0.0015382766723632812,0.0022017955780029297,0
0.3398563861846924,0.6215835213661194,-0.8490217328071594,0.916536271572113,-0.27863706517013437,-0.9750915857768488,0.7999999999992595,0.7999999999998196,0.799999999999092,0.0,0.0,-0.6,0.0,0.001458883285522461,0.0020275115966796875,0
0.3497767448425293,0.6211094260215759,-0.8493139743804932,0.9151357412338257,-0.27866786106884456,-0.9750915857765269,0.7999999999864479,0.7999999999966606,0.7999999999833178,0.0,0.0,-0.6,0.0,0.0014276504516601562,0.0020606517791748047,0
0.35976457595825195,0.6209002137184143,-0.8494384288787842,0.9145492911338806,-0.27867515652584063,-0.9750915857764451,0.799999999983221,0.7999999999958579,0.7999999999793165,0.0,0.0,-0.6,0.0,0.0017609596252441406,0.0024187564849853516,0
0.3697686195373535,0.6207087635993958,-0.8495486974716187,0.9140379428863525,-0.2786879349712493,-0.9750915857763518,0.7999999999795525,0.7999999999949445,0.7999999999747672,0.0,0.0,-0.6,0.0,0.0015377998352050781,0.0022611618041992188,0
0.37987470626831055,0.6205336451530457,-0.8496434092521667,0.913600504398346,-0.27870516288228464,-0.9750915857767768,0.7999999999964124,0.7999999999991134,0.7999999999955686,0.0,0.0,-0.6,0.0,0.0016930103302001953,0.0024721622467041016,0
0.39000821113586426,0.6203734278678894,-0.8497233390808105,0.9132332801818848,-0.2787017263107809,-0.9750915857768653,0.7999999999999192,0.7999999999999803,0.7999999999999002,0.0,0.0,-0.6,0.0,0.0015087127685546875,0.002185344696044922,0
0.39997315406799316,0.6201001405715942,-0.8498414158821106,0.9127010703086853,-0.2787120769254014,-0.975091585775853,0.7999999999445816,0.799999999937615,0.7999999999742278,0.0,0.0,-0.6,0.0,0.0014464855194091797,0.0021860599517822266,0
0.4098184108734131,0.6200096011161804,-0.849883496761322,0.9125334620475769,-0.2787196614007301,-0.9750915857762938,0.7999999999687243,0.7999999999646942,0.7999999999852929,0.0,0.0,-0.6,0.0,0.0014874935150146484,0.0021543502807617188,0
0.41982364654541016,0.6199344992637634,-0.8499124646186829,0.9124299883842468,-0.2787316798982424,-0.975091585776785,0.7999999999955376,0.7999999999949358,0.7999999999978157,0.0,0.0,-0.6,0.0,0.0014929771423339844,0.0022134780883789062,0
0.42991089820861816,0.619873046875,-0.849927544593811,0.9123889207839966,-0.2787360665989586,-0.9750915857765169,0.7999999999861654,0.7999999999965339,0.7999999999828219,0.0,0.0,-0.6,0.0,0.0018467903137207031,0.0026106834411621094,0
0.43990397453308105,0.6197894811630249,-0.8499217629432678,0.912467360496521,-0.278746349250439,-0.9750915857561415,0.7999999991831964,0.7999999997924969,0.7999999989824783,0.0,0.0,-0.6,0.0,0.0017404556274414062,0.002416849136352539,0
0.450026273727417,0.6197674870491028,-0.8499040603637695,0.9125931262969971,-0.27876283032592236,-0.975091585727712,0.7999999980616568,0.799999999506851,0.7999999975844241,0.0,0.0,-0.6,0.0,0.0014917850494384766,0.0022814273834228516,0
0.4598734378814697,0.6197633147239685,-0.8498358726501465,0.9130176901817322,-0.27878634845159234,-0.97509158572545,0.7999999979687588,0.7999999994834487,0.7999999974700616,0.0,0.0,-0.6,0.0,0.0016317367553710938,0.0024797916412353516,0
0.46990203857421875,0.6197822093963623,-0.8497838377952576,0.9133126735687256,-0.2787942693080414,-0.975091585725499,0.7999999979672796,0.7999999994835378,0.7999999974704268,0.0,0.0,-0.6,0.0,0.0013415813446044922,0.00194549560546875,0
0.47990918159484863,0.6198342442512512,-0.8497220873832703,0.9136602282524109,-0.2787842057731886,-0.9750915857343503,0.7999999983147918,0.7999999995723761,0.7999999979048028,0.0,0.0,-0.6,0.0,0.0017352104187011719,0.002481222152709961,0
0.489776611328125,0.6198973655700684,-0.8496488928794861,0.9140595197677612,-0.2787857839692247,-0.9750915857768673,0.7999999999999997,0.7999999999999999,0.7999999999999996,0.0,0.0,-0.6,0.0,0.0014934539794921875,0.0020449161529541016,0
0.4998157024383545,0.6200549602508545,-0.8494735956192017,0.9150211811065674,-0.2788205538299739,-0.9750915857768673,0.7999999999999995,0.7999999999999999,0.7999999999999993,0.0,0.0,-0.6,0.0,0.0015015602111816406,0.0020601749420166016,0
0.5099425315856934,0.6201499104499817,-0.8493726253509521,0.9155797958374023,-0.2788237512370051,-0.9750915857768673,0.7999999999999996,0.7999999999999999,0.7999999999999995,0.0,0.0,-0.6,0.0,0.001912832260131836,0.0026209354400634766,0
0.5197927951812744,0.6202567219734192,-0.8492617011070251,0.9161859154701233,-0.2788278743066804,-0.9750915857768673,0.7999999999999997,0.7999999999999999,0.7999999999999996,0.0,0.0,-0.6,0.0,0.0015759468078613281,0.0021457672119140625,0
0.529942512512207,0.6203746199607849,-0.8491407036781311,0.9168375134468079,-0.27883886773540967,-0.975091585725859,0.7999999979560432,0.7999999994831296,0.7999999974687922,0.0,0.0,-0.6,0.0,0.0014569759368896484,0.00206756591796875,0
0.5398855209350586,0.6206357479095459,-0.8488701581954956,0.9182687997817993,-0.27884448035000364,-0.9750915857768673,0.7999999999999985,0.7999999999999996,0.799999999999998,0.0,0.0,-0.6,0.0,0.0017726421356201172,0.002476930618286133,0
0.5498788356781006,0.6208034157752991,-0.8487246036529541,0.9190474152565002,-0.27884609461368304,-0.9750915857768673,0.7999999999999973,0.7999999999999993,0.7999999999999962,0.0,0.0,-0.6,0.0,0.0017521381378173828,0.0023610591888427734,0
0.5599300861358643,0.620978593826294,-0.8485710024833679,0.9198676943778992,-0.27886586432535215,-0.9750915857768673,0.7999999999999975,0.7999999999999994,0.7999999999999966,0.0,0.0,-0.6,0.0,0.0017900466918945312,0.0024597644805908203,0
0.569770097732544,0.6211617588996887,-0.8484081625938416,0.9207289814949036,-0.2788756125981682,-0.975091585776867,0.7999999999999956,0.7999999999999987,0.7999999999999939,0.0,0.0,-0.6,0.0,0.0018079280853271484,0.002443552017211914,0
0.5798923969268799,0.621351957321167,-0.8482362031936646,0.921626091003418,-0.2788738063282369,-0.9750915857768673,0.7999999999999958,0.7999999999999988,0.7999999999999943,0.0,0.0,-0.6,0.0,0.0016834735870361328,0.002340555191040039,0
0.5900154113769531,0.6217567920684814,-0.8478628396987915,0.9235348701477051,-0.2788714675529195,-0.9750915857768673,0.7999999999999979,0.7999999999999995,0.7999999999999972,0.0,0.0,-0.6,0.0,0.0016999244689941406,0.0023336410522460938,0
0.5996866226196289,0.6219701766967773,-0.8476622104644775,0.9245434999465942,-0.2788709199744953,-0.975091585776867,0.7999999999999944,0.7999999999999984,0.7999999999999922,0.0,0.0,-0.6,0.0,0.001445770263671875,0.0019752979278564453,0
0.6098670959472656,0.6221882104873657,-0.8474533557891846,0.9255867600440979,-0.2788739478655019,-0.975091585776867,0.7999999999999896,0.7999999999999969,0.7999999999999853,0.0,0.0,-0.6,0.0,0.0014858245849609375,0.002068758010864258,0
0.6198735237121582,0.6224128007888794,-0.8472351431846619,0.9266650080680847,-0.27889326372620665,-0.975091585776867,0.7999999999999933,0.799999999999998,0.7999999999999906,0.0,0.0,-0.6,0.0,0.0016436576843261719,0.0022802352905273438,0
0.6298975944519043,0.6229395270347595,-0.8467757701873779,0.9289224743843079,-0.27893836214451145,-0.9750915857768673,0.7999999999999987,0.7999999999999997,0.7999999999999983,0.0,0.0,-0.6,0.0,0.0014023780822753906,0.001995563507080078,0
0.6399264335632324,0.6232135891914368,-0.8465335965156555,0.9301006197929382,-0.27894834886358477,-0.9750915857768673,0.7999999999999992,0.7999999999999998,0.7999999999999989,0.0,0.0,-0.6,0.0,0.0015430450439453125,0.0021963119506835938,0
0.6498842239379883,0.6234937906265259,-0.8462841510772705,0.9312842488288879,-0.27896525064429356,-0.9750915857768673,0.7999999999999993,0.7999999999999998,0.7999999999999992,0.0,0.0,-0.6,0.0,0.0015881061553955078,0.0022478103637695312,0
0.6598083972930908,0.6230280995368958,-0.8465712070465088,0.9296194911003113,-0.2789705754813065,-0.9750915857768673,0.7999999999999968,0.7999999999999992,0.7999999999999957,0.0,0.0,-0.6,0.0,0.0016775131225585938,0.0022461414337158203,0
0.6698262691497803,0.622164249420166,-0.847095251083374,0.9266067743301392,-0.27896989589054794,-0.9750915857768646,0.7999999999998915,0.7999999999999712,0.799999999999862,0.0,0.0,-0.6,0.0,0.001786947250366211,0.002458810806274414,0
0.6798419952392578,0.6217644214630127,-0.847329318523407,0.9252517819404602,-0.2789652186706862,-0.9750915857768571,0.7999999999995806,0.7999999999998895,0.7999999999994748,0.0,0.0,-0.6,0.0,0.0015475749969482422,0.0021615028381347656,0
0.6900801658630371,0.6213845610618591,-0.8475421667098999,0.9239938855171204,-0.27898397118466034,-0.9750915857768477,0.7999999999992007,0.7999999999997945,0.7999999999990014,0.0,0.0,-0.6,0.0,0.0020639896392822266,0.0028111934661865234,0
0.6998703479766846,0.6210482716560364,-0.8477391004562378,0.9228275418281555,-0.2789938743711534,-0.9750915857768369,0.7999999999987567,0.7999999999996883,0.7999999999984556,0.0,0.0,-0.6,0.0,0.0017609596252441406,0.002454042434692383,0
0.709813117980957,0.6204344034194946,-0.8480846881866455,0.9207668304443359,-0.27901940191238556,-0.9750915857766403,0.7999999999907668,0.7999999999976731,0.7999999999884794,0.0,0.0,-0.6,0.0,0.0016033649444580078,0.0021462440490722656,0
0.719855785369873,0.6201564073562622,-0.8482351899147034,0.9198733568191528,-0.2790342881801185,-0.9750915857763045,0.7999999999771878,0.7999999999942422,0.7999999999714983,0.0,0.0,-0.6,0.0,0.0015799999237060547,0.002242565155029297,0
0.7298705577850342,0.619896411895752,-0.8483715653419495,0.9190625548362732,-0.27903422487484736,-0.9750915857768648,0.7999999999999022,0.7999999999999754,0.799999999999878,0.0,0.0,-0.6,0.0,0.0018970966339111328,0.0026116371154785156,0
0.7398214340209961,0.6196544170379639,-0.8484928011894226,0.9183328747749329,-0.2790138759315175,-0.9750915857766876,0.7999999999927554,0.7999999999981748,0.7999999999909564,0.0,0.0,-0.6,0.0,0.0017838478088378906,0.002340555191040039,0
0.749788761138916,0.619219958782196,-0.8486930131912231,0.9171074628829956,-0.2790214675503209,-0.9750915857766358,0.7999999999907077,0.7999999999976501,0.799999999988361,0.0,0.0,-0.6,0.0,0.0018024444580078125,0.0024716854095458984,0
0.7597649097442627,0.6190271973609924,-0.8487721681594849,0.9166098833084106,-0.27901627045000765,-0.9750915857768498,0.7999999999992996,0.7999999999998226,0.7999999999991215,0.0,0.0,-0.6,0.0,0.0018148422241210938,0.0023610591888427734,0
0.7699229717254639,0.6188759803771973,-0.8488455414772034,0.9161844253540039,-0.27900290145162554,-0.9750915857768655,0.7999999999999224,0.7999999999999804,0.7999999999999026,0.0,0.0,-0.6,0.0,0.0016329288482666016,0.002308368682861328,0
0.7800869941711426,0.6187409162521362,-0.8489052057266235,0.9158307909965515,-0.2790136401659383,-0.9750915857768659,0.7999999999999531,0.7999999999999882,0.799999999999941,0.0,0.0,-0.6,0.0,0.001973867416381836,0.002704143524169922,0
0.7897906303405762,0.6185168623924255,-0.8489887118339539,0.9153273701667786,-0.2790043042782793,-0.9750915857764203,0.799999999982179,0.7999999999954407,0.7999999999774519,0.0,0.0,-0.6,0.0,0.0017099380493164062,0.002222776412963867,0
0.7999088764190674,0.6184249520301819,-0.849013090133667,0.9151740074157715,-0.2790133977603466,-0.9750915857766438,0.799999999991097,0.7999999999977166,0.7999999999887124,0.0,0.0,-0.6,0.0,0.0014722347259521484,0.0021409988403320312,0
0.8098299503326416,0.6183465123176575,-0.8490256667137146,0.9150856137275696,-0.27902002443317353,-0.9750915857767457,0.7999999999951558,0.7999999999987555,0.7999999999938504,0.0,0.0,-0.6,0.0,0.0014333724975585938,0.0020477771759033203,0
0.8198192119598389,0.6182284355163574,-0.8490123748779297,0.915100634098053,-0.2790172180814511,-0.9750915857768592,0.7999999999996779,0.7999999999999162,0.799999999999587,0.0,0.0,-0.6,0.0,0.0014317035675048828,0.0020029544830322266,0
0.8299753665924072,0.6181864142417908,-0.8489874601364136,0.9152000546455383,-0.27903254718781006,-0.9750915857768634,0.7999999999998474,0.7999999999999602,0.7999999999998036,0.0,0.0,-0.6,0.0,0.002034902572631836,0.002833127975463867,0
0.839881181716919,0.6181783080101013,-0.8489533066749573,0.915357232093811,-0.2790421162141847,-0.9750915857768659,0.7999999999999443,0.7999999999999854,0.799999999999928,0.0,0.0,-0.6,0.0,0.0018303394317626953,0.0025870800018310547,0
0.8499033451080322,0.6181808710098267,-0.8489079475402832,0.9155709147453308,-0.2790414615713574,-0.9750915857768664,0.7999999999999676,0.7999999999999915,0.7999999999999579,0.0,0.0,-0.6,0.0,0.0014841556549072266,0.0021295547485351562,0
0.859886884689331,0.6182224154472351,-0.8487821817398071,0.9161494970321655,-0.2790324439464408,-0.9750915857768659,0.7999999999999505,0.7999999999999869,0.7999999999999359,0.0,0.0,-0.6,0.0,0.0020165443420410156,0.002788066864013672,0
0.8696990013122559,0.618260383605957,-0.8487014174461365,0.9165124893188477,-0.2790344795416502,-0.9750915857768668,0.7999999999999811,0.7999999999999949,0.7999999999999753,0.0,0.0,-0.6,0.0,0.0017652511596679688,0.002329587936401367,0
0.8800573348999023,0.6183079481124878,-0.8486104011535645,0.9169273972511292,-0.27903796382274637,-0.975091585776867,0.7999999999999903,0.7999999999999974,0.7999999999999872,0.0,0.0,-0.6,0.0,0.0019435882568359375,0.0026803016662597656,0
0.8898229598999023,0.6183655261993408,-0.8485111594200134,0.9173938035964966,-0.2790335096901707,-0.9750915857768673,0.7999999999999984,0.7999999999999996,0.7999999999999978,0.0,0.0,-0.6,0.0,0.0018887519836425781,0.0025353431701660156,0
0.8998839855194092,0.6184312105178833,-0.848405122756958,0.9179103970527649,-0.2790552259053381,-0.9750915857768673,0.7999999999999994,0.7999999999999998,0.7999999999999992,0.0,0.0,-0.6,0.0,0.0017979145050048828,0.0024368762969970703,0
0.90997314453125,0.6186228394508362,-0.8481740951538086,0.9190869331359863,-0.2790641403687065,-0.9750915857768673,0.7999999999999989,0.7999999999999997,0.7999999999999985,0.0,0.0,-0.6,0.0,0.0019044876098632812,0.0026319026947021484,0
0.9197895526885986,0.618748664855957,-0.8480475544929504,0.9197453856468201,-0.2790684749472661,-0.975091585776867,0.7999999999999956,0.7999999999999988,0.7999999999999943,0.0,0.0,-0.6,0.0,0.002187967300415039,0.003079652786254883,0
0.9300093650817871,0.6188840270042419,-0.8479116559028625,0.9204500317573547,-0.27906334868687616,-0.9750915857768673,0.7999999999999959,0.7999999999999989,0.7999999999999947,0.0,0.0,-0.6,0.0,0.0027587413787841797,0.003748178482055664,0
0.9399256706237793,0.61902916431427,-0.8477660417556763,0.9211925268173218,-0.27908563179989904,-0.975091585776867,0.7999999999999899,0.7999999999999974,0.7999999999999869,0.0,0.0,-0.6,0.0,0.0022687911987304688,0.003117799758911133,0
0.9497725963592529,0.619347095489502,-0.8474475145339966,0.9228071570396423,-0.27910427538103383,-0.975091585776867,0.799999999999988,0.7999999999999968,0.7999999999999845,0.0,0.0,-0.6,0.0,0.0019114017486572266,0.0025246143341064453,0
0.9599742889404297,0.6195184588432312,-0.8472765684127808,0.923676609992981,-0.2791104573491349,-0.9750915857768668,0.799999999999986,0.7999999999999964,0.7999999999999818,0.0,0.0,-0.6,0.0,0.001955270767211914,0.002689838409423828,0
0.9698090553283691,0.6196971535682678,-0.8470991253852844,0.9245831370353699,-0.2791392128494118,-0.975091585776867,0.7999999999999905,0.7999999999999975,0.7999999999999877,0.0,0.0,-0.6,0.0,0.0017290115356445312,0.002372264862060547,0
0.9798612594604492,0.6198827028274536,-0.8469150066375732,0.9255263209342957,-0.27915306452436345,-0.9750915857768668,0.7999999999999869,0.7999999999999966,0.7999999999999832,0.0,0.0,-0.6,0.0,0.001626729965209961,0.002241373062133789,0
0.9900455474853516,0.620331346988678,-0.8465311527252197,0.9275234341621399,-0.2791371835016651,-0.9750915857768673,0.7999999999999984,0.7999999999999996,0.7999999999999979,0.0,0.0,-0.6,0.0,0.001949310302734375,0.0027320384979248047,0
0.9997608661651611,0.6205637454986572,-0.8463280200958252,0.9285757541656494,-0.27917173842770765,-0.9750915857768673,0.7999999999999968,0.7999999999999992,0.7999999999999959,0.0,0.0,-0.6,0.0,0.0020751953125,0.0028221607208251953,0
1.0098845958709717,0.6208025217056274,-0.846118688583374,0.9296529293060303,-0.2791817435554887,-0.975091585776867,0.7999999999999927,0.7999999999999982,0.7999999999999906,0.0,0.0,-0.6,0.0,0.0032262802124023438,0.004350185394287109,0
1.0200896263122559,0.6210467219352722,-0.8459034562110901,0.9307645559310913,-0.27919490884439563,-0.9750915857768668,0.7999999999999818,0.7999999999999953,0.7999999999999768,0.0,0.0,-0.6,0.0,0.0027494430541992188,0.003782987594604492,0
1.0298612117767334,0.6212975978851318,-0.8456810116767883,0.9319092631340027,-0.2791962548323177,-0.9750915857768636,0.7999999999998434,0.7999999999999602,0.7999999999998036,0.0,0.0,-0.6,0.0,0.002498626708984375,0.0034542083740234375,0
1.040015697479248,0.6218181252479553,-0.845217227935791,0.9342974424362183,-0.27917996684536656,-0.9750915857768532,0.7999999999994022,0.7999999999998494,0.7999999999992571,0.0,0.0,-0.6,0.0,0.002878427505493164,0.003786802291870117,0
1.0497491359710693,0.6220839619636536,-0.8449739217758179,0.9355398416519165,-0.2791776560859986,-0.9750915857768518,0.7999999999993399,0.7999999999998341,0.7999999999991815,0.0,0.0,-0.6,0.0,0.0022516250610351562,0.003490924835205078,0
1.0601913928985596,0.621708333492279,-0.8453148603439331,0.9338796138763428,-0.2792020084763249,-0.9750915857768666,0.7999999999999741,0.7999999999999934,0.7999999999999672,0.0,0.0,-0.6,0.0,0.002959728240966797,0.0040378570556640625,0
1.0699119567871094,0.6210182309150696,-0.8459336161613464,0.9308733940124512,-0.2792228003508839,-0.9750915857768673,0.7999999999999997,0.7999999999999999,0.7999999999999996,0.0,0.0,-0.6,0.0,0.002529621124267578,0.0033724308013916016,0
1.0797691345214844,0.6207035779953003,-0.8462139964103699,0.9295312166213989,-0.279235692809079,-0.9750915857768673,0.8,0.8,0.8,0.0,0.0,-0.6,0.0,0.0018236637115478516,0.002382993698120117,0
1.1128795146942139,0.6204084157943726,-0.8464757800102234,0.9282857179641724,-0.27925094528931454,-0.9750915857768673,0.8,0.8,0.8,0.0,0.0,-0.6,0.0,0.0014295578002929688,0.0020623207092285156,0
1.1198740005493164,0.6194056868553162,-0.8473524451255798,0.9242178201675415,-0.279257615513834,-0.9750915857767329,0.7999999999945334,0.799999999998486,0.7999999999926777,0.0,0.0,-0.6,0.0,0.0014963150024414062,0.0021533966064453125,0
1.1296706199645996,0.6192182898521423,-0.8475331664085388,0.9234171509742737,-0.2792812524354009,-0.9750915857767603,0.7999999999956612,0.799999999998789,0.7999999999941656,0.0,0.0,-0.6,0.0,0.001323699951171875,0.0019779205322265625,0
1.1396851539611816,0.6188896894454956,-0.8478479981422424,0.922062337398529,-0.2793323631348057,-0.9750915857768334,0.799999999998651,0.799999999999463,0.799999999998094,0.0,0.0,-0.6,0.0,0.0013349056243896484,0.0019254684448242188,0
1.149871826171875,0.6187459230422974,-0.8479834198951721,0.9215144515037537,-0.279321101210072,-0.9750915857768488,0.7999999999992722,0.7999999999996531,0.7999999999989401,0.0,0.0,-0.6,0.0,0.0016627311706542969,0.002447366714477539,0
1.1597771644592285,0.6186153888702393,-0.8481056690216064,0.9210405349731445,-0.27930917851171455,-0.9750915857768553,0.7999999999995286,0.7999999999997464,0.7999999999992977,0.0,0.0,-0.6,0.0,0.0016722679138183594,0.0022873878479003906,0
1.170217514038086,0.6184985041618347,-0.8482147455215454,0.9206393361091614,-0.27931886909321024,-0.9750915857768562,0.7999999999995626,0.7999999999997435,0.7999999999993674,0.0,0.0,-0.6,0.0,0.003449678421020508,0.004811525344848633,0
1.1800568103790283,0.6183981895446777,-0.8483079671859741,0.920307993888855,-0.2793217829718804,-0.9750915857767934,0.7999999999970463,0.7999999999991523,0.7999999999959785,0.0,0.0,-0.6,0.0,0.003226041793823242,0.004429340362548828,0
1.190129041671753,0.6183264255523682,-0.8483665585517883,0.91999351978302,-0.2792366540514082,-0.9750915857764565,0.7999999999835271,0.7999999999958222,0.7999999999793668,0.0,0.0,-0.6,0.0,0.0027441978454589844,0.0035254955291748047,0
1.1998865604400635,0.6182999014854431,-0.8482999801635742,0.919049859046936,-0.2787308718406176,-0.9750915857763619,0.7999999999698477,0.7999999999679621,0.7999999999858558,0.0,0.0,-0.6,0.0,0.001981496810913086,0.0027015209197998047,0
1.2097623348236084,0.6183430552482605,-0.848164439201355,0.9183118343353271,-0.27823753341808893,-0.9750915857762711,0.7999999999770355,0.799999999994669,0.7999999999735963,0.0,0.0,-0.6,0.0,0.002153158187866211,0.002839803695678711,0
1.2198100090026855,0.6184170246124268,-0.8479613065719604,0.917367160320282,-0.2775569508589425,-0.9750915857766536,0.7999999999918401,0.7999999999982315,0.7999999999909508,0.0,0.0,-0.6,0.0,0.0017099380493164062,0.0023107528686523438,0
1.2300136089324951,0.6186564564704895,-0.8473592400550842,0.9148145318031311,-0.27551654691349003,-0.9750915857768673,0.7999999999999984,0.7999999999999996,0.7999999999999984,0.0,0.0,-0.6,0.0,0.002157449722290039,0.0029625892639160156,0
1.2398428916931152,0.6188167929649353,-0.846967339515686,0.9132131338119507,-0.274024861958337,-0.975091585776864,0.7999999999998687,0.7999999999999025,0.7999999999998887,0.0,0.0,-0.6,0.0,0.0023450851440429688,0.003040790557861328,0
1.2498857975006104,0.6189914345741272,-0.8465175628662109,0.9113942980766296,-0.27213038428823727,-0.9750915857768345,0.7999999999987526,0.7999999999997428,0.7999999999987787,0.0,0.0,-0.6,0.0,0.0019266605377197266,0.002618074417114258,0
1.2598471641540527,0.6193678975105286,-0.8454259037971497,0.9070882201194763,-0.26698213024487216,-0.9750915857765938,0.799999999989542,0.7999999999979241,0.7999999999901564,0.0,0.0,-0.6,0.0,0.002224445343017578,0.0029020309448242188,0
1.26979660987854,0.6195927262306213,-0.8447772264480591,0.9045870304107666,-0.2637907181286755,-0.9750915857766492,0.7999999999916358,0.7999999999983598,0.7999999999922653,0.0,0.0,-0.6,0.0,0.0020279884338378906,0.002562284469604492,0
1.279848575592041,0.6198208332061768,-0.8440519571304321,0.9018428325653076,-0.2602256206258115,-0.9750915857768673,0.8,0.8,0.8,0.0,0.0,-0.6,0.0,0.0018610954284667969,0.002445220947265625,0
1.2897441387176514,0.6200529336929321,-0.8432426452636719,0.8988460302352905,-0.2562885399004611,-0.9750915857757905,0.7438018968127175,0.7999999999935918,0.7999999999673602,0.0,0.0,-0.6,0.0,0.0016396045684814453,0.002170562744140625,0
1.2998325824737549,0.6205126047134399,-0.8413389325141907,0.8920196294784546,-0.2473560611741223,-0.9750915857768666,0.6153506531188148,0.799999999999979,0.7999999999999532,0.0,0.0,-0.6,0.0,0.0016512870788574219,0.002245187759399414,0
1.3099181652069092,0.6207305788993835,-0.8402308225631714,0.8881843090057373,-0.24240391285410218,-0.9750915857768673,0.5467513435129424,0.8,0.8,0.0,0.0,-0.6,0.0,0.0017299652099609375,0.002399444580078125,0
1.3197386264801025,0.620936393737793,-0.8390058279037476,0.884056568145752,-0.23717862815845595,-0.975091585776867,0.47472091516645637,0.7999999999999976,0.799999999999992,0.0,0.0,-0.6,0.0,0.0017354488372802734,0.0022788047790527344,0
1.3307063579559326,0.6211260557174683,-0.8376530408859253,0.8796265721321106,-0.23168337338493056,-0.975091585776301,0.40081584077706456,0.799999999991673,0.7999999999717824,0.0,0.0,-0.6,0.0,0.0028464794158935547,0.004714012145996094,0
1.3400700092315674,0.6211260557174683,-0.8376530408859253,0.8796265721321106,-0.23168337338493056,-0.975091585776301,0.40081584077706456,0.799999999991673,0.7999999999717824,0.0,0.0,-0.6,0.0,0.00034928321838378906,0.0017507076263427734,0
1.3499650955200195,0.6214566826820374,-0.83452969789505,0.8698280453681946,-0.21996498400096878,-0.9750915857767511,0.24507199797571017,0.7999999999983015,0.7999999999936944,0.0,0.0,-0.6,0.0,0.0034639835357666016,0.004696369171142578,0
1.3599839210510254,0.621675968170166,-0.830804169178009,0.8587722182273865,-0.20744476562733224,-0.9750915857768544,0.0820027792364105,0.799999999999602,0.7999999999986814,0.0,0.0,-0.6,0.0,0.0036237239837646484,0.005517721176147461,0
1.3709533214569092,0.621675968170166,-0.830804169178009,0.8587722182273865,-0.20744476562733224,-0.9750915857768544,0.0820027792364105,0.799999999999602,0.7999999999986814,0.0,0.0,-0.6,0.0,0.0004849433898925781,0.001918792724609375,0
1.3800301551818848,0.6217203140258789,-0.8286976218223572,0.8527415990829468,-0.2009263660527825,-0.9750915857759337,0.0006141387677757583,0.7999999999698162,0.7999999998743982,0.0,0.0,-0.6,0.0,0.002985239028930664,0.004203081130981445,0
1.3907837867736816,0.6215384602546692,-0.8213520646095276,0.8327513933181763,-0.18040331559312867,-0.9750915857736276,-0.2334244270001111,0.7999999999836919,0.7999999997703426,0.0,0.0,-0.6,0.0,0.00407862663269043,0.005681276321411133,0
1.3998045921325684,0.6215384602546692,-0.8213520646095276,0.8327513933181763,-0.18040331559312867,-0.9750915857736276,-0.2334244270001111,0.7999999999836919,0.7999999997703426,0.0,0.0,-0.6,0.0,0.0003333091735839844,0.0012240409851074219,0
1.4097273349761963,0.6211081743240356,-0.815545380115509,0.8178480267524719,-0.166065205978223,-0.9750915857768603,-0.37855259422601706,0.7999999999999106,0.7999999999995393,0.0,0.0,-0.6,0.0,0.002687692642211914,0.0034875869750976562,0
1.419924259185791,0.6211081743240356,-0.815545380115509,0.8178480267524719,-0.166065205978223,-0.9750915857768603,-0.37855259422601706,0.7999999999999106,0.7999999999995393,0.0,0.0,-0.6,0.0,0.0004222393035888672,0.0011730194091796875,0
1.4296514987945557,0.6199502348899841,-0.8054086565971375,0.793138861656189,-0.14386183901892616,-0.9750915857768659,-0.5965384838113781,0.7999999999999946,0.7999999999999126,0.0,0.0,-0.6,0.0,0.0016336441040039062,0.002220630645751953,0
1.4397659301757812,0.6199502348899841,-0.8054086565971375,0.793138861656189,-0.14386183901892616,-0.9750915857768659,-0.5965384838113781,0.7999999999999946,0.7999999999999126,0.0,0.0,-0.6,0.0,0.00018286705017089844,0.0007917881011962891,0
1.449869155883789,0.619103193283081,-0.7985131740570068,0.7750743627548218,-0.12867205662930797,-0.9750915857767875,-0.7186157496451968,0.799999999998424,0.7999999999877618,0.0,0.0,-0.6,0.0,0.002131223678588867,0.0029244422912597656,0
1.4599792957305908,0.619103193283081,-0.7985131740570068,0.7750743627548218,-0.12867205662930797,-0.9750915857767875,-0.7186157496451968,0.799999999998424,0.7999999999877618,0.0,0.0,-0.6,0.0,0.0002465248107910156,0.0010313987731933594,0
1.469761848449707,0.6143022775650024,-0.7910183072090149,0.739607036113739,-0.10572372856036169,-0.9750915857766841,-0.7999999999966703,0.6302006752566567,0.799999976117391,0.0,0.0,-0.6,0.0,0.001985788345336914,0.0029418468475341797,0
1.4799113273620605,0.6143022775650024,-0.7910183072090149,0.739607036113739,-0.10572372856036169,-0.9750915857766841,-0.7999999999966703,0.6302006752566567,0.799999976117391,0.0,0.0,-0.6,0.0,0.0002968311309814453,0.0013637542724609375,0
1.4903059005737305,0.6105853319168091,-0.7848914861679077,0.7146885991096497,-0.09032136502702498,-0.9579182075710583,-0.7999999999787736,0.4929183364762753,0.7999999991097215,0.0,0.0,-0.6,0.0,0.0034313201904296875,0.004575014114379883,0
1.4996428489685059,0.6105853319168091,-0.7848914861679077,0.7146885991096497,-0.09032136502702498,-0.9579182075710583,-0.7999999999787736,0.4929183364762753,0.7999999991097215,0.0,0.0,-0.6,0.0,0.00014591217041015625,0.0006375312805175781,0
1.5096485614776611,0.6040965914726257,-0.7740713953971863,0.675353467464447,-0.06726389611372185,-0.9167690062971475,-0.7999999999949824,0.2824279846219591,0.7201248601284945,0.0,0.0,-0.6,0.0,0.001796722412109375,0.002354860305786133,0
1.519761562347412,0.6040965914726257,-0.7740713953971863,0.675353467464447,-0.06726389611372185,-0.9167690062971475,-0.7999999999949824,0.2824279846219591,0.7201248601284945,0.0,0.0,-0.6,0.0,0.00016951560974121094,0.0007688999176025391,0
1.5297114849090576,0.5990641713142395,-0.7658069729804993,0.6477518677711487,-0.05195463522097204,-0.8882109298018958,-0.7999999994746344,0.12918793816988408,0.5983030795535397,0.0,0.0,-0.6,0.0,0.002000570297241211,0.0028429031372070312,0
1.539928913116455,0.5990641713142395,-0.7658069729804993,0.6477518677711487,-0.05195463522097204,-0.8882109298018958,-0.7999999994746344,0.12918793816988408,0.5983030795535397,0.0,0.0,-0.6,0.0,0.0002880096435546875,0.0011565685272216797,0
1.5499131679534912,0.5903218388557434,-0.751952052116394,0.6042281985282898,-0.029370209402766138,-0.8453156929296376,-0.7999999999999456,-0.10991283884545006,0.3859206453791552,0.0,0.0,-0.6,0.0,0.002614736557006836,0.0035254955291748047,0
1.5597739219665527,0.5903218388557434,-0.751952052116394,0.6042281985282898,-0.029370209402766138,-0.8453156929296376,-0.7999999999999456,-0.10991283884545006,0.3859206453791552,0.0,0.0,-0.6,0.0,0.0002391338348388672,0.001041412353515625,0
1.5698978900909424,0.5837006568908691,-0.7418681383132935,0.5739110708236694,-0.01485397722797991,-0.818360439350017,-0.7999999999972158,-0.2649608329491122,0.23497936556726853,0.0,0.0,-0.6,0.0,0.002808094024658203,0.0035028457641601562,0
1.5798473358154297,0.5801376700401306,-0.736598551273346,0.5584158301353455,-0.007797820687849422,-0.8053386730724763,-0.7999999999999998,-0.339114188048711,0.16256874789039003,0.0,0.0,-0.6,0.0,0.0021653175354003906,0.0028944015502929688,0
1.5897090435028076,0.5764065980911255,-0.7311924695968628,0.5427031517028809,-0.0008904240530817679,-0.7926402550481678,-0.7999999999941794,-0.41140647142334186,0.09121777320802059,0.0,0.0,-0.6,0.0,0.0015234947204589844,0.002028226852416992,0
1.5996158123016357,0.5684380531311035,-0.7200163006782532,0.5107439756393433,0.012314812124899798,-0.7686187177374063,-0.7999999999880897,-0.5497789584342727,-0.04742937375435162,0.0,0.0,-0.6,0.0,0.001718282699584961,0.0022859573364257812,0
1.6096820831298828,0.564207136631012,-0.7142680883407593,0.4945375621318817,0.01855815915699139,-0.7570038391892187,-0.7999999999931313,-0.6132930744176963,-0.10884648031615092,0.0,0.0,-0.6,0.0,0.0016522407531738281,0.0022187232971191406,0
1.6195993423461914,0.5598154664039612,-0.7084267139434814,0.4782065749168396,0.024556801580794086,-0.7452987993676188,-0.7999999999997474,-0.6719673406376402,-0.16057705057621371,0.0,0.0,-0.6,0.0,0.0016853809356689453,0.0022554397583007812,0
1.629793643951416,0.5506121516227722,-0.6965199708938599,0.4452544152736664,0.03562192170389168,-0.7225585212720099,-0.7789910061795651,-0.7999999986476203,-0.24698538669792663,0.0,0.0,-0.6,0.0,0.002511739730834961,0.0033113956451416016,0
1.6396188735961914,0.5458100438117981,-0.6904717087745667,0.4286693036556244,0.04062203605274547,-0.7093303671619512,-0.7419164122236547,-0.7999999999998573,-0.28504485598356,0.0,0.0,-0.6,0.0,0.0018794536590576172,0.0023894309997558594,0
1.6497385501861572,0.542216420173645,-0.6854273080825806,0.41201603412628174,0.045257368990783434,-0.6971467621522912,-0.6936548469790444,-0.7999999999925337,-0.31852845727845674,0.0,0.0,-0.6,0.0,0.0017054080963134766,0.0023164749145507812,0
1.659653663635254,0.5384765267372131,-0.6803218126296997,0.39530691504478455,0.04913632883952592,-0.6855967668076225,-0.642843850163699,-0.7999999999999616,-0.3457901454591167,0.0,0.0,-0.6,0.0,0.0019865036010742188,0.0026268959045410156,0
1.6697304248809814,0.5345951914787292,-0.6751629710197449,0.37858718633651733,0.05266338757248875,-0.6744631584728349,-0.5881040105492527,-0.7999999999977926,-0.37010155813390455,0.0,0.0,-0.6,0.0,0.0016143321990966797,0.002124309539794922,0
1.679619550704956,0.5264334678649902,-0.66471266746521,0.3451797664165497,0.05857482852322969,-0.6540538406083063,-0.47302837938005243,-0.799999999999498,-0.40907971512787844,0.0,0.0,-0.6,0.0,0.0018732547760009766,0.0025064945220947266,0
1.689758539199829,0.5221670866012573,-0.6594352722167969,0.3285270631313324,0.0609032354704461,-0.6449087940526114,-0.4125747389061526,-0.7999999999982673,-0.42366577881216555,0.0,0.0,-0.6,0.0,0.0014727115631103516,0.001997232437133789,0
1.699615240097046,0.5133429169654846,-0.6488181352615356,0.29539957642555237,0.0644852860586119,-0.6286366955065051,-0.28761404542189156,-0.7999999999991613,-0.4446900442792936,0.0,0.0,-0.6,0.0,0.0016446113586425781,0.0021963119506835938,0
1.7099189758300781,0.5087975859642029,-0.6434864401817322,0.2789550721645355,0.06570268652701178,-0.6215356099279278,-0.22530976633469024,-0.7999999999956616,-0.4510789161153894,0.0,0.0,-0.6,0.0,0.001544952392578125,0.002193450927734375,0
1.719585657119751,0.5041523575782776,-0.6381421089172363,0.26260989904403687,0.06661303320114895,-0.6150699305566127,-0.1625312179583566,-0.79999999996942,-0.45549052329869383,0.0,0.0,-0.6,0.0,0.001573324203491211,0.002109050750732422,0
1.7298316955566406,0.49941450357437134,-0.6327898502349854,0.24636031687259674,0.06721079251016689,-0.6093147887716903,-0.10248528791708508,-0.7999999999887707,-0.45757067193218554,0.0,0.0,-0.6,0.0,0.0018665790557861328,0.002471446990966797,0
1.7400445938110352,0.4896842837333679,-0.6220722794532776,0.2142515778541565,0.06760032465703279,-0.5995559997543088,0.013383976009721318,-0.8,-0.45675565640156124,0.0,0.0,-0.6,0.0,0.0017626285552978516,0.0024843215942382812,0
1.749770164489746,0.48469918966293335,-0.6167169213294983,0.1984207034111023,0.06742590516295999,-0.5956177232180446,0.06858196033218904,-0.7999999999999957,-0.4539971586915714,0.0,0.0,-0.6,0.0,0.0016257762908935547,0.0021610260009765625,0
1.7598512172698975,0.48469918966293335,-0.6167169213294983,0.1984207034111023,0.06742590516295999,-0.5956177232180446,0.06858196033218904,-0.7999999999999957,-0.4539971586915714,0.0,0.0,-0.6,0.0,0.00022292137145996094,0.0009746551513671875,0
1.7698643207550049,0.4745180308818817,-0.606023907661438,0.16726213693618774,0.06637218116455357,-0.5894957867843337,0.16680219644151845,-0.7999999999998879,-0.44382326008903955,0.0,0.0,-0.6,0.0,0.0025396347045898438,0.003573179244995117,0
1.780165672302246,0.4745180308818817,-0.606023907661438,0.16726213693618774,0.06637218116455357,-0.5894957867843337,0.16680219644151845,-0.7999999999998879,-0.44382326008903955,0.0,0.0,-0.6,0.0,0.0004038810729980469,0.0017251968383789062,0
1.7901673316955566,0.46422895789146423,-0.5953853726387024,0.13683323562145233,0.06449136225162087,-0.5856330017203122,0.2486570600219541,-0.7999999999762636,-0.4282519267740805,0.0,0.0,-0.6,0.0,0.0030460357666015625,0.0041959285736083984,0
1.7998206615447998,0.46422895789146423,-0.5953853726387024,0.13683323562145233,0.06449136225162087,-0.5856330017203122,0.2486570600219541,-0.7999999999762636,-0.4282519267740805,0.0,0.0,-0.6,0.0,0.00022721290588378906,0.0009710788726806641,0
1.8097615242004395,0.4483966529369354,-0.5795451998710632,0.09265948832035065,0.060334084194594184,-0.583015062553145,0.34717593298789284,-0.7999999974195238,-0.39652090378122384,0.0,0.0,-0.6,0.0,0.0021140575408935547,0.002889871597290039,0
1.8199760913848877,0.4483966529369354,-0.5795451998710632,0.09265948832035065,0.060334084194594184,-0.583015062553145,0.34717593298789284,-0.7999999974195238,-0.39652090378122384,0.0,0.0,-0.6,0.0,0.00029587745666503906,0.0011396408081054688,0
1.829751968383789,0.43217483162879944,-0.5638863444328308,0.05040355399250984,0.05498030707559141,-0.5824916086210806,0.40932737233921146,-0.7999999999998755,-0.3579898009465843,0.0,0.0,-0.6,0.0,0.0022706985473632812,0.0030760765075683594,0
1.8400623798370361,0.43217483162879944,-0.5638863444328308,0.05040355399250984,0.05498030707559141,-0.5824916086210806,0.40932737233921146,-0.7999999999998755,-0.3579898009465843,0.0,0.0,-0.6,0.0,0.00027489662170410156,0.0011889934539794922,0
1.849698543548584,0.421286404132843,-0.553572416305542,0.023347310721874237,0.050853492009660335,-0.5830277337915079,0.4329886835662673,-0.7999999999662882,-0.32907105621961114,0.0,0.0,-0.6,0.0,0.0017666816711425781,0.002443075180053711,0
1.8599684238433838,0.421286404132843,-0.553572416305542,0.023347310721874237,0.050853492009660335,-0.5830277337915079,0.4329886835662673,-0.7999999999662882,-0.32907105621961114,0.0,0.0,-0.6,0.0,0.0002491474151611328,0.0009846687316894531,0
1.8697490692138672,0.4052428603172302,-0.5496330857276917,-0.00726357800886035,0.04644359779823839,-0.581549371026091,0.48282741068036567,-0.7999999999998747,-0.30014392579501686,0.0,0.0,-0.6,0.0,0.002023935317993164,0.002848386764526367,0
1.8798558712005615,0.4052428603172302,-0.5496330857276917,-0.00726357800886035,0.04644359779823839,-0.581549371026091,0.48282741068036567,-0.7999999999998747,-0.30014392579501686,0.0,0.0,-0.6,0.0,0.0003006458282470703,0.0010900497436523438,0
1.8901264667510986,0.3813971281051636,-0.5434578657150269,-0.05111955478787422,0.03953118897723557,-0.5814463251649397,0.5250318770656163,-0.7999999999147241,-0.2540788416013499,0.0,0.0,-0.6,0.0,0.0023920536041259766,0.0032317638397216797,0
1.8999509811401367,0.3813971281051636,-0.5434578657150269,-0.05111955478787422,0.03953118897723557,-0.5814463251649397,0.5250318770656163,-0.7999999999147241,-0.2540788416013499,0.0,0.0,-0.6,0.0,0.0002911090850830078,0.0011174678802490234,0
1.9098215103149414,0.3578300178050995,-0.5370100140571594,-0.09243433177471161,0.03226033453441287,-0.5833437768557428,0.537177286105896,-0.7999999999325148,-0.20490575450565313,0.0,0.0,-0.6,0.0,0.0023546218872070312,0.0032002925872802734,0
1.920044183731079,0.3578300178050995,-0.5370100140571594,-0.09243433177471161,0.03226033453441287,-0.5833437768557428,0.537177286105896,-0.7999999999325148,-0.20490575450565313,0.0,0.0,-0.6,0.0,0.0002899169921875,0.001155853271484375,0
1.9298582077026367,0.3424104154109955,-0.5325890779495239,-0.1185983419418335,0.027277698099022803,-0.5856657553542115,0.5266350489698357,-0.7999999211503249,-0.1704261983790754,0.0,0.0,-0.6,0.0,0.0017557144165039062,0.002645730972290039,0
1.9400818347930908,0.3424104154109955,-0.5325890779495239,-0.1185983419418335,0.027277698099022803,-0.5856657553542115,0.5266350489698357,-0.7999999211503249,-0.1704261983790754,0.0,0.0,-0.6,0.0,0.00029468536376953125,0.0012464523315429688,0
1.949950933456421,0.32714179158210754,-0.5280629396438599,-0.143698051571846,0.022274774209702558,-0.5886868853964311,0.5052887514176951,-0.7999999947195544,-0.13527448788833168,0.0,0.0,-0.6,0.0,0.0020020008087158203,0.002933979034423828,0
1.959937572479248,0.32714179158210754,-0.5280629396438599,-0.143698051571846,0.022274774209702558,-0.5886868853964311,0.5052887514176951,-0.7999999947195544,-0.13527448788833168,0.0,0.0,-0.6,0.0,0.0002720355987548828,0.0011196136474609375,0
1.9699862003326416,0.30454379320144653,-0.5210886597633362,-0.17937864363193512,0.01472773539868182,-0.5938723919206077,0.45121555097017,-0.7999999999946542,-0.08350926443491379,0.0,0.0,-0.6,0.0,0.002965688705444336,0.004227161407470703,0
1.9800934791564941,0.30454379320144653,-0.5210886597633362,-0.17937864363193512,0.01472773539868182,-0.5938723919206077,0.45121555097017,-0.7999999999946542,-0.08350926443491379,0.0,0.0,-0.6,0.0,0.0003383159637451172,0.001544952392578125,0
1.9900906085968018,0.28242623805999756,-0.5138943195343018,-0.21270941197872162,0.0073827440969347815,-0.599825716690854,0.3735599233297485,-0.7999999999998153,-0.033775174878358516,0.0,0.0,-0.6,0.0,0.002789735794067383,0.0038938522338867188,0
2.0000240802764893,0.28242623805999756,-0.5138943195343018,-0.21270941197872162,0.0073827440969347815,-0.599825716690854,0.3735599233297485,-0.7999999999998153,-0.033775174878358516,0.0,0.0,-0.6,0.0,0.00032782554626464844,0.0014085769653320312,0
2.009673833847046,0.2680208086967468,-0.5089855194091797,-0.2336711585521698,0.0026702099219566276,-0.6041421172307451,0.31307950795912454,-0.7999999999999753,-0.0016934493343018129,0.0,0.0,-0.6,0.0,0.00147247314453125,0.002156972885131836,0
2.020419120788574,0.25383198261260986,-0.503974974155426,-0.25367385149002075,-0.001932954213756102,-0.6086282421991489,0.2459076104129455,-0.7999999999998761,0.029868436481768325,0.0,0.0,-0.6,0.0,0.002391815185546875,0.003415822982788086,0
2.0299184322357178,0.24682679772377014,-0.501428484916687,-0.26331451535224915,-0.0041626838586192386,-0.6109041641366629,0.21002140284535595,-0.799999999999352,0.04518594000958567,0.0,0.0,-0.6,0.0,0.002018451690673828,0.002992868423461914,0
2.0403754711151123,0.23988093435764313,-0.4988541901111603,-0.2727205753326416,-0.006326217187776884,-0.6131315574316435,0.17456567201788614,-0.7999999999950771,0.060041409831723874,0.0,0.0,-0.6,0.0,0.002288341522216797,0.003231525421142578,0
2.0497400760650635,0.23299665749073029,-0.4962522089481354,-0.2818962633609772,-0.008430735304479253,-0.615364836158805,0.13832457624480277,-0.799999999907352,0.07454440211546796,0.0,0.0,-0.6,0.0,0.0017886161804199219,0.0025339126586914062,0
2.0597877502441406,0.21950013935565948,-0.49096664786338806,-0.2995782792568207,-0.012457480212966474,-0.619646615482537,0.06564616720940006,-0.799999999969398,0.10263187920840634,0.0,0.0,-0.6,0.0,0.0019192695617675781,0.0027267932891845703,0
2.069782018661499,0.21289527416229248,-0.48828405141830444,-0.30809563398361206,-0.014396959265141814,-0.6216388262448873,0.029926606265799217,-0.799999999976611,0.11620833580938043,0.0,0.0,-0.6,0.0,0.0014955997467041016,0.0020813941955566406,0
2.0797863006591797,0.20636595785617828,-0.4855708181858063,-0.31640249490737915,-0.016245141271211072,-0.6235925616168818,-0.005372456199916082,-0.7999999999999158,0.12915805051980034,0.0,0.0,-0.6,0.0,0.0015180110931396484,0.002198934555053711,0
2.0897951126098633,0.19991552829742432,-0.4828270375728607,-0.3245372474193573,-0.01802317248876192,-0.6255029374795826,-0.03964548970294406,-0.7999999999929847,0.14167288626469188,0.0,0.0,-0.6,0.0,0.0013413429260253906,0.0019192695617675781,0
2.0996687412261963,0.1935468167066574,-0.48005083203315735,-0.33246737718582153,-0.019698524767597186,-0.627253867640042,-0.07277018297183299,-0.7843206000982618,0.15359468708538648,0.0,0.0,-0.6,0.0,0.0016145706176757812,0.0022182464599609375,0
2.109956979751587,0.1810719519853592,-0.47439658641815186,-0.34773099422454834,-0.02283949641549828,-0.6301603292189479,-0.1357198763500159,-0.6472841079659329,0.17175666959023625,0.0,0.0,-0.6,0.0,0.0014698505401611328,0.0021696090698242188,0
2.1198015213012695,0.17497235536575317,-0.47151708602905273,-0.355074942111969,-0.0242874925088705,-0.6315388278872553,-0.16509166549456955,-0.5763731250550704,0.18004391602133843,0.0,0.0,-0.6,0.0,0.001168966293334961,0.0017848014831542969,0
2.129869222640991,0.1689666211605072,-0.4686025381088257,-0.3622303903102875,-0.025651864443134817,-0.6329605344017228,-0.19320179133146165,-0.5040212975399698,0.1877762456661736,0.0,0.0,-0.6,0.0,0.0013327598571777344,0.002022981643676758,0
2.1397080421447754,0.15736128389835358,-0.4626810550689697,-0.3759959638118744,-0.02809854070221615,-0.6356488237669757,-0.24513393056745633,-0.3514214222382662,0.2014304771408804,0.0,0.0,-0.6,0.0,0.0012946128845214844,0.00199127197265625,0
2.149796485900879,0.15171276032924652,-0.4596656262874603,-0.3826064467430115,-0.02919354441720649,-0.6369903981889032,-0.2678998714710759,-0.2708700957669993,0.20749993516893492,0.0,0.0,-0.6,0.0,0.0013670921325683594,0.001966238021850586,0
2.1596908569335938,0.1461714506149292,-0.45661312341690063,-0.38905540108680725,-0.0301602876503792,-0.6382879377632166,-0.2930726881603264,-0.18911084484250668,0.2129987193887158,0.0,0.0,-0.6,0.0,0.0016667842864990234,0.0023088455200195312,0
2.169752359390259,0.14073951542377472,-0.4535217583179474,-0.3953304886817932,-0.031002482135049726,-0.6394775585122809,-0.3202041389733337,-0.10730180916746718,0.21798886502170445,0.0,0.0,-0.6,0.0,0.001310586929321289,0.0019373893737792969,0
2.1796672344207764,0.13021041452884674,-0.44722747802734375,-0.40737757086753845,-0.03234773382613054,-0.6417765472829622,-0.36562066912343005,0.054036674090935204,0.22587644074135854,0.0,0.0,-0.6,0.0,0.001249074935913086,0.0019273757934570312,0
2.1900997161865234,0.1251184642314911,-0.4440273344516754,-0.41315746307373047,-0.03284849594224483,-0.6427862674632685,-0.38351318024307424,0.1336236721972994,0.22875745057868338,0.0,0.0,-0.6,0.0,0.0012891292572021484,0.002945423126220703,0
2.199700355529785,0.12014484405517578,-0.44079408049583435,-0.41878068447113037,-0.033215523472110826,-0.6437924396453567,-0.3985970068901119,0.21129546562626425,0.2307934358602156,0.0,0.0,-0.6,0.0,0.0010690689086914062,0.001657724380493164,0
2.2098612785339355,0.11532521992921829,-0.437534898519516,-0.4242517054080963,-0.03342377465100445,-0.644780488455605,-0.41370792399413264,0.2865779098834094,0.2317527584629203,0.0,0.0,-0.6,0.0,0.001363992691040039,0.0020706653594970703,0
2.219820022583008,0.11062566936016083,-0.4342396557331085,-0.4295708239078522,-0.03346039637119679,-0.645774778760824,-0.4265011142084254,0.3588817221276065,0.23161086907638181,0.0,0.0,-0.6,0.0,0.0012087821960449219,0.0018267631530761719,0
2.2298479080200195,0.10604898631572723,-0.43090933561325073,-0.4347396194934845,-0.03336932194626935,-0.6467623870725062,-0.4364780823062959,0.4286284032996042,0.230660696523571,0.0,0.0,-0.6,0.0,0.0012574195861816406,0.0018801689147949219,0
2.2399415969848633,0.10604898631572723,-0.43090933561325073,-0.4347396194934845,-0.03336932194626935,-0.6467623870725062,-0.4364780823062959,0.4286284032996042,0.230660696523571,0.0,0.0,-0.6,0.0,0.00028252601623535156,0.0011415481567382812,0
2.2498302459716797,0.09306883811950684,-0.42072564363479614,-0.4494977593421936,-0.03214767610437088,-0.6494799192439165,-0.4494661724432864,0.628076346153722,0.22155351797137265,0.0,0.0,-0.6,0.0,0.0026628971099853516,0.003816366195678711,0
2.2602007389068604,0.08373847603797913,-0.41961222887039185,-0.45755401253700256,-0.031444574127167356,-0.6494143407100629,-0.43126986243946086,0.6258791971261061,0.21723355861761712,0.0,0.0,-0.6,0.0,0.001653909683227539,0.0024776458740234375,0
2.2697880268096924,0.0746447890996933,-0.4184223413467407,-0.4653834104537964,-0.030495419443686975,-0.6493770596759333,-0.4105917211458966,0.6337523169657358,0.21117470184270992,0.0,0.0,-0.6,0.0,0.001050710678100586,0.0017020702362060547,0
2.2799975872039795,0.05717625841498375,-0.41583675146102905,-0.48037832975387573,-0.028238124669543535,-0.6494749684509695,-0.36210153890720087,0.640754520476917,0.19679670264542118,0.0,0.0,-0.6,0.0,0.0011699199676513672,0.0018551349639892578,0
2.2898993492126465,0.04879658296704292,-0.41444629430770874,-0.48755136132240295,-0.02695642544931769,-0.6495238990706552,-0.33597722156164683,0.6403194900985044,0.18861193539144203,0.0,0.0,-0.6,0.0,0.001028299331665039,0.0016872882843017578,0
2.299722671508789,0.04064163565635681,-0.41299188137054443,-0.4945312440395355,-0.025557525734485078,-0.6496124626935346,-0.3085124213506345,0.6356775105542781,0.17966940842166815,0.0,0.0,-0.6,0.0,0.0010347366333007812,0.001699686050415039,0
2.3099400997161865,0.024990247562527657,-0.4099067151546478,-0.507868230342865,-0.022510820864959424,-0.650015375861046,-0.24906690738390125,0.6157162457857533,0.1602059903390819,0.0,0.0,-0.6,0.0,0.0022385120391845703,0.003675222396850586,0
2.3198184967041016,0.017485428601503372,-0.40828216075897217,-0.5142344236373901,-0.02087485463309373,-0.6502483412354451,-0.21842159936818567,0.6003796004983926,0.1497234578680826,0.0,0.0,-0.6,0.0,0.0011763572692871094,0.0021088123321533203,0
2.3299150466918945,0.010190639644861221,-0.4066055417060852,-0.5204035043716431,-0.01919115536305124,-0.6505166742760059,-0.18740196868596543,0.5833765007436723,0.1389255921993232,0.0,0.0,-0.6,0.0,0.0013229846954345703,0.002276182174682617,0
2.339992046356201,0.0031032287515699863,-0.40487903356552124,-0.5263796448707581,-0.01745341536791669,-0.6508027762507218,-0.15687527117492076,0.5629958517732512,0.1277430075767989,0.0,0.0,-0.6,0.0,0.002145051956176758,0.003493785858154297,0
2.349938154220581,-0.01045125350356102,-0.40129613876342773,-0.537780225276947,-0.013884526201600578,-0.6516546900270804,-0.0942938231284778,0.5154501563864893,0.10479272730613721,0.0,0.0,-0.6,0.0,0.0017940998077392578,0.003016948699951172,0
2.3597092628479004,-0.016924524679780006,-0.3994441330432892,-0.5432082414627075,-0.012095195601727044,-0.6522165965434951,-0.06450895636576381,0.490459856766156,0.09324686417396308,0.0,0.0,-0.6,0.0,0.0013370513916015625,0.0022208690643310547,0
2.369720220565796,-0.023206541314721107,-0.3975529372692108,-0.548452615737915,-0.010309680054996172,-0.652735141852578,-0.03481814522967085,0.4633514784716681,0.08172779435898707,0.0,0.0,-0.6,0.0,0.0009088516235351562,0.001596689224243164,0
2.3796186447143555,-0.035217177122831345,-0.3936645984649658,-0.558404803276062,-0.006733126788829391,-0.6540601252064815,0.02021012411795289,0.4062228237086165,0.058575298468447966,0.0,0.0,-0.6,0.0,0.0010943412780761719,0.0018241405487060547,0
2.38969349861145,-0.04095429182052612,-0.39167046546936035,-0.563116729259491,-0.004997860731085396,-0.6547917889742546,0.04488249241102658,0.3772494359944565,0.04729423964205862,0.0,0.0,-0.6,0.0,0.0008592605590820312,0.0014698505401611328,0
2.3996479511260986,-0.04651784896850586,-0.3896445333957672,-0.5676568150520325,-0.003277544108985563,-0.655571333376425,0.06712222780831462,0.34836492361050614,0.03607448471663113,0.0,0.0,-0.6,0.0,0.00093841552734375,0.001577138900756836,0
2.409754514694214,-0.051911912858486176,-0.38759011030197144,-0.5720285177230835,-0.0015919857227327109,-0.6563601466470896,0.08968160401764254,0.3190724227097265,0.025099693506505302,0.0,0.0,-0.6,0.0,0.0009510517120361328,0.0015859603881835938,0
2.419651985168457,-0.05714073404669762,-0.3855101466178894,-0.5762350559234619,7.446964944655344e-05,-0.657243365468946,0.11000300544622635,0.28987437760889084,0.014216846499247992,0.0,0.0,-0.6,0.0,0.0008957386016845703,0.0014927387237548828,0
2.429749011993408,-0.06219805032014847,-0.38341236114501953,-0.5802850127220154,0.001681714731899607,-0.6581847573756039,0.12883596681932188,0.2609038152587941,0.003705719015846047,0.0,0.0,-0.6,0.0,0.0011739730834960938,0.0018968582153320312,0
2.4396045207977295,-0.07184436917304993,-0.37915027141571045,-0.5879067182540894,0.0046975531808206,-0.6601560208291496,0.1605373170563722,0.20518384583987473,-0.016105703924107855,0.0,0.0,-0.6,0.0,0.0008640289306640625,0.001438140869140625,0
2.44968581199646,-0.0764407217502594,-0.3769899308681488,-0.5914811491966248,0.006111925044515693,-0.6612592134562996,0.17376047542545478,0.1789370086043562,-0.025424655320191683,0.0,0.0,-0.6,0.0,0.0008478164672851562,0.001415252685546875,0
2.4596991539001465,-0.0808892622590065,-0.37481096386909485,-0.5949016809463501,0.0074868337594186955,-0.662379070113414,0.18386547835542227,0.15467459940037662,-0.0345308095959107,0.0,0.0,-0.6,0.0,0.0008955001831054688,0.0015614032745361328,0
2.469642162322998,-0.08519293367862701,-0.3726133704185486,-0.5981705188751221,0.008797917471403124,-0.6635291800868957,0.19225432074217663,0.13135751370781248,-0.04323793308010101,0.0,0.0,-0.6,0.0,0.0008921623229980469,0.0014438629150390625,0
2.4796106815338135,-0.0933767780661583,-0.3681686520576477,-0.604271650314331,0.01121672773766359,-0.6657532314283723,0.20381024269979361,0.08978061091828354,-0.05938240588939522,0.0,0.0,-0.6,0.0,0.001005411148071289,0.0016124248504638672,0
2.489824056625366,-0.09726187586784363,-0.3659229576587677,-0.6071100831031799,0.012313880862426997,-0.6669070798208434,0.20708143338979565,0.07134185367255858,-0.06674287853679854,0.0,0.0,-0.6,0.0,0.0012018680572509766,0.0020051002502441406,0
2.4998526573181152,-0.10099741071462631,-0.36367228627204895,-0.6098220944404602,0.0133353107101929,-0.668112574885477,0.20880731077704556,0.05424297624730584,-0.07362223275406966,0.0,0.0,-0.6,0.0,0.0011036396026611328,0.0017216205596923828,0
2.509791851043701,-0.10460439324378967,-0.3614096939563751,-0.6123988032341003,0.01429809332229344,-0.6692834744415384,0.20937720225916398,0.03854437235489097,-0.08012220741556635,0.0,0.0,-0.6,0.0,0.0008339881896972656,0.0014226436614990234,0
