time,x,y,z,yaw,throttle,roll_rate,pitch_rate,yaw_rate,x_ref,y_ref,z_ref,yaw_ref,mpc_time,ctrl_callback_time_history,metadata
1.1920928955078125e-06,0.02312348037958145,-0.021828025579452515,0.19752414524555206,0.0029562792495735598,-0.9220941189170366,-0.021063067016527912,0.17484082017591568,-0.018839090159713284,0.0,0.0,-0.6,0.0,0.004010438919067383,0.006658315658569336,Sim
0.009209632873535156,0.022882593795657158,-0.022260738536715508,0.1954660415649414,0.002933737034877491,-0.9215199282433288,-0.017009132564787036,0.17273204433754455,-0.0186959214164134,0.0,0.0,-0.6,0.0,0.0009701251983642578,0.002260446548461914,1x Speed
0.01930689811706543,0.02280544675886631,-0.022388897836208344,0.19468151032924652,0.002949996036604998,-0.9212889285951928,-0.015365621729705395,0.1718694346241844,-0.018800217415834326,0.0,0.0,-0.6,0.0,0.0008571147918701172,0.002421140670776367,Horizon:3.0
0.029626131057739258,0.02280544675886631,-0.022388897836208344,0.19468151032924652,0.002949996036604998,-0.9212889285951928,-0.015365621729705395,0.1718694346241844,-0.018800217415834326,0.0,0.0,-0.6,0.0,0.0002467632293701172,0.0017468929290771484,Num Steps:20
0.0392918586730957,0.02265593782067299,-0.022625114768743515,0.19297046959400177,0.002963477307226571,-0.9207711797892462,-0.012272934003305543,0.17063667057617232,-0.018887057516718136,0.0,0.0,-0.6,0.0,0.001157999038696289,0.0024957656860351562,Pyjoules
0.049474239349365234,0.022513210773468018,-0.022832566872239113,0.19107739627361298,0.002981314028951182,-0.9201882449672786,-0.01077760366091237,0.16964842062890867,-0.019001101336587525,0.0,0.0,-0.6,0.0,0.0010116100311279297,0.0024306774139404297,0
0.059304237365722656,0.02244424819946289,-0.0229250006377697,0.19031521677970886,0.0030031555683997678,-0.9199635301172291,-0.010917220432198557,0.16930727942526627,-0.019140826959689525,0.0,0.0,-0.6,0.0,0.0009121894836425781,0.0023665428161621094,0
0.06951689720153809,0.02244424819946289,-0.0229250006377697,0.19031521677970886,0.0030031555683997678,-0.9199635301172291,-0.010917220432198557,0.16930727942526627,-0.019140826959689525,0.0,0.0,-0.6,0.0,0.0002512931823730469,0.001672983169555664,0
0.07927942276000977,0.022311830893158913,-0.02308415062725544,0.18864360451698303,0.002987084285144657,-0.9194367299159346,-0.01070172742207119,0.16859525424827254,-0.019038150889450087,0.0,0.0,-0.6,0.0,0.0009710788726806641,0.0023393630981445312,0
0.08945155143737793,0.022183828055858612,-0.02321305125951767,0.1867782175540924,0.0030087935567670275,-0.9187775775292537,-0.009410634860161088,0.16724764110179446,-0.01917797718552383,0.0,0.0,-0.6,0.0,0.0008890628814697266,0.002187490463256836,0
0.09948348999023438,0.022121446207165718,-0.023266851902008057,0.18577584624290466,0.0030201699084316078,-0.9184784954476739,-0.008726295182723902,0.16655383804438836,-0.019251104577044865,0.0,0.0,-0.6,0.0,0.0014889240264892578,0.0034973621368408203,0
0.10985231399536133,0.022121446207165718,-0.023266851902008057,0.18577584624290466,0.0030201699084316078,-0.9184784954476739,-0.008726295182723902,0.16655383804438836,-0.019251104577044865,0.0,0.0,-0.6,0.0,0.0005223751068115234,0.0028939247131347656,0
0.11933636665344238,0.021939843893051147,-0.0233925674110651,0.1825019121170044,0.0029940819161260895,-0.9173690499295232,-0.006876440753116784,0.16450302341641512,-0.01908489522092174,0.0,0.0,-0.6,0.0,0.0010635852813720703,0.0026483535766601562,0
0.12947678565979004,0.021881254389882088,-0.023423124104738235,0.18160702288150787,0.0029919366010869733,-0.9170444401046026,-0.005844703643547221,0.16344778531155046,-0.019071569133885823,0.0,0.0,-0.6,0.0,0.0009114742279052734,0.002460479736328125,0
0.13927340507507324,0.021823681890964508,-0.02344789355993271,0.1806619018316269,0.0029950272548101074,-0.9166986601984807,-0.005957151791712266,0.16346503797751705,-0.01909135807811704,0.0,0.0,-0.6,0.0,0.0007643699645996094,0.0025434494018554688,0
0.14954757690429688,0.021823681890964508,-0.02344789355993271,0.1806619018316269,0.0029950272548101074,-0.9166986601984807,-0.005957151791712266,0.16346503797751705,-0.01909135807811704,0.0,0.0,-0.6,0.0,0.00025916099548339844,0.0022783279418945312,0
0.15942621231079102,0.021663885563611984,-0.023489149287343025,0.17753587663173676,0.0029540921647292456,-0.9155452059511807,-0.004691028213752447,0.16310666757849634,-0.018830230054597205,0.0,0.0,-0.6,0.0,0.0008833408355712891,0.002290487289428711,0
0.16941285133361816,0.021613212302327156,-0.02349086105823517,0.17640094459056854,0.0029485574918809484,-0.9151555841995122,-0.005070207496732601,0.1618023843795831,-0.01879508827754703,0.0,0.0,-0.6,0.0,0.0009913444519042969,0.0026214122772216797,0
0.1793220043182373,0.02156277745962143,-0.02348644658923149,0.17522144317626953,0.002949323620648107,-0.9147245306712696,-0.005005480357423744,0.16144836881759023,-0.0188002956490693,0.0,0.0,-0.6,0.0,0.0009367465972900391,0.0027616024017333984,0
0.19014883041381836,0.02156277745962143,-0.02348644658923149,0.17522144317626953,0.002949323620648107,-0.9147245306712696,-0.005005480357423744,0.16144836881759023,-0.0188002956490693,0.0,0.0,-0.6,0.0,0.00030231475830078125,0.0029327869415283203,0
0.1993248462677002,0.021421456709504128,-0.023439250886440277,0.17198456823825836,0.0029624121505804017,-0.9136275938067671,-0.006046905798144419,0.16244671644008402,-0.018883624263438807,0.0,0.0,-0.6,0.0,0.0010559558868408203,0.0028638839721679688,0
0.2096724510192871,0.021378004923462868,-0.02341090515255928,0.17090585827827454,0.0029707520484163062,-0.9132381785549866,-0.006585462918618207,0.16211008948976438,-0.01893705999674971,0.0,0.0,-0.6,0.0,0.001432657241821289,0.0033292770385742188,0
0.21942424774169922,0.021334484219551086,-0.023375969380140305,0.16978006064891815,0.002967578657455774,-0.9128190459791748,-0.007979100671525493,0.16128098017072232,-0.018916984240617423,0.0,0.0,-0.6,0.0,0.001504659652709961,0.0035941600799560547,0
0.2297828197479248,0.021334484219551086,-0.023375969380140305,0.16978006064891815,0.002967578657455774,-0.9128190459791748,-0.007979100671525493,0.16128098017072232,-0.018916984240617423,0.0,0.0,-0.6,0.0,0.0003573894500732422,0.0032176971435546875,0
0.23951482772827148,0.021211011335253716,-0.02323898859322071,0.16612747311592102,0.002977785768892803,-0.9114634688922504,-0.00820379124832315,0.16071898719489197,-0.018983069510819274,0.0,0.0,-0.6,0.0,0.0018126964569091797,0.0046994686126708984,0
0.24948334693908691,0.02117226831614971,-0.02318408526480198,0.16509009897708893,0.002997540152932099,-0.9110924588333263,-0.008186770571673335,0.15995997161989245,-0.019109813477017006,0.0,0.0,-0.6,0.0,0.001186370849609375,0.003058195114135742,0
0.259319543838501,0.021134894341230392,-0.023124970495700836,0.16400420665740967,0.003000347025748648,-0.9106941666253819,-0.00869774157403365,0.1595519233460124,-0.01912799670896891,0.0,0.0,-0.6,0.0,0.0009827613830566406,0.002341032028198242,0
0.2697296142578125,0.021134894341230392,-0.023124970495700836,0.16400420665740967,0.003000347025748648,-0.9106941666253819,-0.00869774157403365,0.1595519233460124,-0.01912799670896891,0.0,0.0,-0.6,0.0,0.0002713203430175781,0.0026950836181640625,0
0.2793431282043457,0.021032122895121574,-0.023202652111649513,0.16161096096038818,0.00299868230202035,-0.9098542878599589,-0.006294977701855564,0.15805843647391477,-0.01911812949504528,0.0,0.0,-0.6,0.0,0.0010268688201904297,0.002744436264038086,0
0.2896444797515869,0.021002138033509254,-0.023402797058224678,0.16146861016750336,0.0030071795564471965,-0.9098754514973781,-0.00353686979586295,0.1575928451473529,-0.01917293420053923,0.0,0.0,-0.6,0.0,0.0009145736694335938,0.0028829574584960938,0
0.29944682121276855,0.020972546190023422,-0.02359338104724884,0.16126090288162231,0.003021160257123975,-0.9098651567637068,-0.00214970251320548,0.15742048018459281,-0.019262256402816622,0.0,0.0,-0.6,0.0,0.0008895397186279297,0.002451658248901367,0
0.3093576431274414,0.020972546190023422,-0.02359338104724884,0.16126090288162231,0.003021160257123975,-0.9098651567637068,-0.00214970251320548,0.15742048018459281,-0.019262256402816622,0.0,0.0,-0.6,0.0,0.00022745132446289062,0.0015461444854736328,0
0.31943488121032715,0.020888643339276314,-0.02409793995320797,0.160496786236763,0.0030100321255314647,-0.9098793209048104,-0.0010252008556003015,0.15674088761604174,-0.019190917635754524,0.0,0.0,-0.6,0.0,0.0009822845458984375,0.002989530563354492,0
0.32935571670532227,0.020861100405454636,-0.024244410917162895,0.16027602553367615,0.0030007614177608635,-0.9099644088032872,0.00026134498188726225,0.1554468829406101,-0.019132000121359793,0.0,0.0,-0.6,0.0,0.0013859272003173828,0.004010438919067383,0
0.33959007263183594,0.02083352953195572,-0.024382172152400017,0.15999487042427063,0.0029882839044396738,-0.9099351467257196,0.0012237225348235284,0.1550770578947861,-0.0190521981875985,0.0,0.0,-0.6,0.0,0.0016658306121826172,0.004670381546020508,0
0.34972643852233887,0.02083352953195572,-0.024382172152400017,0.15999487042427063,0.0029882839044396738,-0.9099351467257196,0.0012237225348235284,0.1550770578947861,-0.0190521981875985,0.0,0.0,-0.6,0.0,0.00028395652770996094,0.002926349639892578,0
0.35953712463378906,0.020749101415276527,-0.02474183216691017,0.1587895005941391,0.0029943444211005823,-0.9097197351655752,0.0041529002958695755,0.15315432441677407,-0.019091416612671695,0.0,0.0,-0.6,0.0,0.0012454986572265625,0.004254341125488281,0
0.3695247173309326,0.020720791071653366,-0.02484537661075592,0.1582743525505066,0.0029978164097802656,-0.9096179334053551,0.004979771601107901,0.152844733403823,-0.019113864257075293,0.0,0.0,-0.6,0.0,0.0010151863098144531,0.0031096935272216797,0
0.3793044090270996,0.020693454891443253,-0.024940241128206253,0.15770414471626282,0.003010829958872808,-0.9094721656578282,0.005478296988401751,0.15282882780798848,-0.019197144626484794,0.0,0.0,-0.6,0.0,0.00092315673828125,0.002580404281616211,0
0.38959670066833496,0.020693454891443253,-0.024940241128206253,0.15770414471626282,0.003010829958872808,-0.9094721656578282,0.005478296988401751,0.15282882780798848,-0.019197144626484794,0.0,0.0,-0.6,0.0,0.0002548694610595703,0.0018734931945800781,0
0.39934635162353516,0.02061810903251171,-0.025177542120218277,0.1561255007982254,0.0030403187687866574,-0.9090773885374556,0.007516778959385742,0.1525443752148778,-0.019385748076272958,0.0,0.0,-0.6,0.0,0.0009732246398925781,0.0029227733612060547,0
0.4094657897949219,0.020594339817762375,-0.025242192670702934,0.15556292235851288,0.003054421169052188,-0.9089450985778504,0.007386965335807586,0.15199459899420684,-0.019475939926891193,0.0,0.0,-0.6,0.0,0.0013663768768310547,0.003221273422241211,0
0.41980409622192383,0.020571378991007805,-0.02529851719737053,0.1549464613199234,0.003082380417908085,-0.9087611289110578,0.0073476807424644,0.15195105889007263,-0.019654705310885253,0.0,0.0,-0.6,0.0,0.0014142990112304688,0.003622293472290039,0
0.4298114776611328,0.020571378991007805,-0.02529851719737053,0.1549464613199234,0.003082380417908085,-0.9087611289110578,0.0073476807424644,0.15195105889007263,-0.019654705310885253,0.0,0.0,-0.6,0.0,0.0003345012664794922,0.002404451370239258,0
0.43938732147216797,0.02051430009305477,-0.02542426995933056,0.15277941524982452,0.00311724243408697,-0.9080892287555624,0.008321597120597511,0.15351087322525106,-0.01987698891405084,0.0,0.0,-0.6,0.0,0.0011737346649169922,0.002739429473876953,0
0.44948673248291016,0.02050015889108181,-0.025454139336943626,0.15195462107658386,0.003106886788833105,-0.9077849254498336,0.00841067535492954,0.15430468640620257,-0.019810472783939687,0.0,0.0,-0.6,0.0,0.0008609294891357422,0.0021505355834960938,0
0.4593212604522705,0.02048729918897152,-0.025477072224020958,0.15107941627502441,0.0031007798540863924,-0.907497856282504,0.008392301739923459,0.15421820648437054,-0.019771370106118322,0.0,0.0,-0.6,0.0,0.0007615089416503906,0.002115488052368164,0
0.46961116790771484,0.02048729918897152,-0.025477072224020958,0.15107941627502441,0.0031007798540863924,-0.907497856282504,0.008392301739923459,0.15421820648437054,-0.019771370106118322,0.0,0.0,-0.6,0.0,0.0002865791320800781,0.002802133560180664,0
0.4799511432647705,0.020447460934519768,-0.02550630085170269,0.14894667267799377,0.0031012224208183817,-0.9067468546738974,0.007593352953948867,0.15370628511146242,-0.019773864394386262,0.0,0.0,-0.6,0.0,0.0020301342010498047,0.005022764205932617,0
0.48941779136657715,0.020435484126210213,-0.02550235204398632,0.14812752604484558,0.003107959159816166,-0.9064547674507478,0.006871449195697798,0.15407815421577153,-0.01981679802325671,0.0,0.0,-0.6,0.0,0.0011467933654785156,0.003587961196899414,0
0.49953579902648926,0.02042456716299057,-0.02549193613231182,0.14725738763809204,0.003119971317662285,-0.9061862500258496,0.006712390676719397,0.15379299729943616,-0.019893565153067956,0.0,0.0,-0.6,0.0,0.0007870197296142578,0.0024802684783935547,0
0.5097172260284424,0.02042456716299057,-0.02549193613231182,0.14725738763809204,0.003119971317662285,-0.9061862500258496,0.006712390676719397,0.15379299729943616,-0.019893565153067956,0.0,0.0,-0.6,0.0,0.0005495548248291016,0.002862215042114258,0
0.5193474292755127,0.020392676815390587,-0.02542850561439991,0.1443527489900589,0.0031518022041433207,-0.9051598012304857,0.00554196595009171,0.15348740621201756,-0.020097103383976557,0.0,0.0,-0.6,0.0,0.0012364387512207031,0.003197908401489258,0
0.5294747352600098,0.020384084433317184,-0.025394193828105927,0.1432878077030182,0.0031626952697345937,-0.9047687982613001,0.0038214795611708255,0.15401312342319468,-0.02016626210336062,0.0,0.0,-0.6,0.0,0.0012860298156738281,0.0035009384155273438,0
0.539841890335083,0.02037660777568817,-0.025352276861667633,0.14242582023143768,0.0031864021905666762,-0.9044353693537687,0.0025286080377612662,0.1541086598709687,-0.020317660397528265,0.0,0.0,-0.6,0.0,0.0016274452209472656,0.004560708999633789,0
0.5497002601623535,0.02037660777568817,-0.025352276861667633,0.14242582023143768,0.0031864021905666762,-0.9044353693537687,0.0025286080377612662,0.1541086598709687,-0.020317660397528265,0.0,0.0,-0.6,0.0,0.0003345012664794922,0.003116607666015625,0
0.5595581531524658,0.020360011607408524,-0.02518646791577339,0.13953165709972382,0.003147508188239344,-0.9033885476025959,-0.00046954588150024024,0.15504553109209443,-0.020068491651512282,0.0,0.0,-0.6,0.0,0.001031637191772461,0.003136873245239258,0
0.569371223449707,0.020356476306915283,-0.025120330974459648,0.13846755027770996,0.0031615042013538133,-0.902995825561275,-0.0007306606290289248,0.15525422486175378,-0.020157938750094657,0.0,0.0,-0.6,0.0,0.0008199214935302734,0.00264739990234375,0
0.5798683166503906,0.020353972911834717,-0.025050345808267593,0.13735640048980713,0.0031892236697046773,-0.9026225748204975,-0.000883072559896479,0.15595534356340787,-0.0203349756336858,0.0,0.0,-0.6,0.0,0.00150299072265625,0.004236698150634766,0
0.5901894569396973,0.020353972911834717,-0.025050345808267593,0.13735640048980713,0.0031892236697046773,-0.9026225748204975,-0.000883072559896479,0.15595534356340787,-0.0203349756336858,0.0,0.0,-0.6,0.0,0.00042057037353515625,0.003946542739868164,0
0.5995078086853027,0.02035633660852909,-0.024804292246699333,0.13374768197536469,0.0032058225002297644,-0.9012778393903735,-0.005725958106725975,0.15766322585270762,-0.020440417730757568,0.0,0.0,-0.6,0.0,0.0018222332000732422,0.004083871841430664,0
0.6095185279846191,0.02035897970199585,-0.024709289893507957,0.1327519714832306,0.00321163176915853,-0.9009079650380123,-0.007161152086845396,0.15782714116848878,-0.020477548675421967,0.0,0.0,-0.6,0.0,0.0014891624450683594,0.003643035888671875,0
0.6194112300872803,0.020362326875329018,-0.024609562009572983,0.1317061334848404,0.00321528290848395,-0.9005430824993453,-0.007709246302943492,0.15817017800019378,-0.02050062475856256,0.0,0.0,-0.6,0.0,0.0011172294616699219,0.0027365684509277344,0
0.6295218467712402,0.020362326875329018,-0.024609562009572983,0.1317061334848404,0.00321528290848395,-0.9005430824993453,-0.007709246302943492,0.15817017800019378,-0.02050062475856256,0.0,0.0,-0.6,0.0,0.00029850006103515625,0.00201416015625,0
0.6393444538116455,0.02037736214697361,-0.024282928556203842,0.12827643752098083,0.0032315203576068585,-0.8992206001112351,-0.012014151285524785,0.15875826838640017,-0.020604152979754438,0.0,0.0,-0.6,0.0,0.0010187625885009766,0.0024814605712890625,0
0.649275541305542,0.020381806418299675,-0.02416349947452545,0.12703745067119598,0.0032394294045704057,-0.8987564395183978,-0.013546421349297526,0.15839524039452482,-0.02065524507033525,0.0,0.0,-0.6,0.0,0.0008590221405029297,0.001995086669921875,0
0.6592550277709961,0.02038685604929924,-0.02403983660042286,0.12575386464595795,0.0032431948419198386,-0.8983126374015915,-0.014492147255371018,0.15892130020262857,-0.020679333529204466,0.0,0.0,-0.6,0.0,0.000957489013671875,0.0023119449615478516,0
0.6698195934295654,0.02038685604929924,-0.02403983660042286,0.12575386464595795,0.0032431948419198386,-0.8983126374015915,-0.014492147255371018,0.15892130020262857,-0.020679333529204466,0.0,0.0,-0.6,0.0,0.0003299713134765625,0.0023751258850097656,0
0.6795008182525635,0.02039618045091629,-0.02404484897851944,0.12291425466537476,0.003226504099720588,-0.8973920240838253,-0.013978871165503245,0.15761553593226754,-0.02057339299223221,0.0,0.0,-0.6,0.0,0.0020873546600341797,0.004693508148193359,0
0.6899077892303467,0.02039286494255066,-0.024300118908286095,0.12270571291446686,0.0032225175538217253,-0.8974037249070763,-0.010576121526316627,0.156867877927495,-0.020548376778954693,0.0,0.0,-0.6,0.0,0.0016858577728271484,0.004112958908081055,0
0.6993918418884277,0.020390348508954048,-0.02454468607902527,0.1224314346909523,0.0032173716979930845,-0.8973607768997487,-0.008309332868076549,0.15714060890853748,-0.02051552448306166,0.0,0.0,-0.6,0.0,0.0009660720825195312,0.0024175643920898438,0
0.7096550464630127,0.020390348508954048,-0.02454468607902527,0.1224314346909523,0.0032173716979930845,-0.8973607768997487,-0.008309332868076549,0.15714060890853748,-0.02051552448306166,0.0,0.0,-0.6,0.0,0.0005128383636474609,0.003958225250244141,0
0.7198526859283447,0.02038664184510708,-0.024996686726808548,0.12169278413057327,0.003201647368299494,-0.8972078364003501,-0.00510887061681011,0.15688408428954373,-0.020415358642610616,0.0,0.0,-0.6,0.0,0.001291036605834961,0.003991603851318359,0
0.7294163703918457,0.02038225159049034,-0.025401370599865913,0.12071242928504944,0.003189610771114666,-0.8970186997002073,-0.001562464322709133,0.15599588617947327,-0.02033887618824447,0.0,0.0,-0.6,0.0,0.0009894371032714844,0.002978086471557617,0
0.739377498626709,0.020381029695272446,-0.025586899369955063,0.12013618648052216,0.0031818146395409764,-0.8968544295034131,-0.00042312183330263137,0.15622804428966874,-0.020289253051009298,0.0,0.0,-0.6,0.0,0.000827789306640625,0.002438783645629883,0
0.7495088577270508,0.020381029695272446,-0.025586899369955063,0.12013618648052216,0.0031818146395409764,-0.8968544295034131,-0.00042312183330263137,0.15622804428966874,-0.020289253051009298,0.0,0.0,-0.6,0.0,0.0002124309539794922,0.002075672149658203,0
0.7592940330505371,0.020376749336719513,-0.026082344353199005,0.11856085062026978,0.0031969883748300416,-0.896374489617146,0.00464885330002626,0.15435294710694802,-0.02038755551992052,0.0,0.0,-0.6,0.0,0.000993967056274414,0.0024399757385253906,0
0.76943039894104,0.020374232903122902,-0.02622755989432335,0.11800301820039749,0.0031754902083966376,-0.8962565026846582,0.005384290134086642,0.15319134566612624,-0.02025044279362896,0.0,0.0,-0.6,0.0,0.00083160400390625,0.0026378631591796875,0
0.7792685031890869,0.020371071994304657,-0.026362519711256027,0.11738824844360352,0.003162474746592314,-0.8960549768250043,0.0060881226556221656,0.15265239899550803,-0.020167467454010986,0.0,0.0,-0.6,0.0,0.0007531642913818359,0.002208232879638672,0
0.7895033359527588,0.020371071994304657,-0.026362519711256027,0.11738824844360352,0.003162474746592314,-0.8960549768250043,0.0060881226556221656,0.15265239899550803,-0.020167467454010986,0.0,0.0,-0.6,0.0,0.0002949237823486328,0.002017974853515625,0
0.8000786304473877,0.020359868183732033,-0.026712235063314438,0.11521225422620773,0.0031662474657496963,-0.8953908587605606,0.008321888735283669,0.152630744965277,-0.02019155862301757,0.0,0.0,-0.6,0.0,0.001447439193725586,0.003981351852416992,0
0.8093345165252686,0.020356277003884315,-0.026809148490428925,0.1143823191523552,0.0031312197968014024,-0.8951457568191465,0.008337662142335467,0.15173197582019046,-0.01996810137221787,0.0,0.0,-0.6,0.0,0.0010573863983154297,0.002749919891357422,0
0.8193507194519043,0.020351747050881386,-0.026897232979536057,0.11371395736932755,0.003110087213182443,-0.8949127741671941,0.009251891643465094,0.15079688641736103,-0.019833323347063687,0.0,0.0,-0.6,0.0,0.0013058185577392578,0.003200531005859375,0
0.829843282699585,0.020351747050881386,-0.026897232979536057,0.11371395736932755,0.003110087213182443,-0.8949127741671941,0.009251891643465094,0.15079688641736103,-0.019833323347063687,0.0,0.0,-0.6,0.0,0.0003376007080078125,0.002492189407348633,0
0.8393557071685791,0.020325390622019768,-0.02711283043026924,0.11138662695884705,0.003130382527276779,-0.8941952723025587,0.01029527855922119,0.1463780802196049,-0.019964526040303833,0.0,0.0,-0.6,0.0,0.0018541812896728516,0.004064083099365234,0
0.8496322631835938,0.020313991233706474,-0.027168452739715576,0.11050701886415482,0.0031267559816260592,-0.8938942078562725,0.01125943556899068,0.146707812466765,-0.019941398973463295,0.0,0.0,-0.6,0.0,0.0012731552124023438,0.003071308135986328,0
0.8594560623168945,0.02030535787343979,-0.027217766270041466,0.1095777079463005,0.003123212990798271,-0.8936088756669723,0.011899098970934718,0.14781008248019387,-0.019918412417504357,0.0,0.0,-0.6,0.0,0.0010862350463867188,0.0028162002563476562,0
0.8695068359375,0.02030535787343979,-0.027217766270041466,0.1095777079463005,0.003123212990798271,-0.8936088756669723,0.011899098970934718,0.14781008248019387,-0.019918412417504357,0.0,0.0,-0.6,0.0,0.00027060508728027344,0.001821279525756836,0
0.8796660900115967,0.020283164456486702,-0.027315456420183182,0.10697168856859207,0.003136523710578032,-0.8927002181575623,0.010914764978204958,0.14691660543222548,-0.020003803620786176,0.0,0.0,-0.6,0.0,0.0010721683502197266,0.002702951431274414,0
0.8895552158355713,0.020275162532925606,-0.027332110330462456,0.1060779020190239,0.0031362044243269825,-0.8923963956767206,0.010671292562518269,0.14647870060675738,-0.020001966989633805,0.0,0.0,-0.6,0.0,0.0009288787841796875,0.0025606155395507812,0
0.8993813991546631,0.02026698924601078,-0.027341285720467567,0.10513318330049515,0.0031369208196959627,-0.8920694649607921,0.01018204524323467,0.14637151958677508,-0.020006307690840622,0.0,0.0,-0.6,0.0,0.0007848739624023438,0.002147197723388672,0
0.9096767902374268,0.02026698924601078,-0.027341285720467567,0.10513318330049515,0.0031369208196959627,-0.8920694649607921,0.01018204524323467,0.14637151958677508,-0.020006307690840622,0.0,0.0,-0.6,0.0,0.0002722740173339844,0.001943349838256836,0
0.9192805290222168,0.020245062187314034,-0.02732263132929802,0.10200274735689163,0.00314302142197295,-0.8909461467213129,0.008249596815726208,0.14623167597603862,-0.020045339375086416,0.0,0.0,-0.6,0.0,0.0010714530944824219,0.0025436878204345703,0
0.9294989109039307,0.020237790420651436,-0.02730070799589157,0.10086303949356079,0.0031325222590184404,-0.8905354508241079,0.007717649941753726,0.14659503871079593,-0.019978140577926806,0.0,0.0,-0.6,0.0,0.0009357929229736328,0.0024328231811523438,0
0.939356803894043,0.020230285823345184,-0.027272744104266167,0.09967625886201859,0.003154094600925574,-0.8900712373220394,0.007962695659183538,0.14684714232850551,-0.020116020207693937,0.0,0.0,-0.6,0.0,0.0008931159973144531,0.0024139881134033203,0
0.9494943618774414,0.020230285823345184,-0.027272744104266167,0.09967625886201859,0.003154094600925574,-0.8900712373220394,0.007962695659183538,0.14684714232850551,-0.020116020207693937,0.0,0.0,-0.6,0.0,0.0002377033233642578,0.0017082691192626953,0
0.9595737457275391,0.02020428702235222,-0.027152737602591515,0.09665923565626144,0.0031829382931060518,-0.8889200908585495,0.006451620568294261,0.1441690979859661,-0.02030149887929326,0.0,0.0,-0.6,0.0,0.0011477470397949219,0.0027463436126708984,0
0.96938157081604,0.020193472504615784,-0.027099722996354103,0.09555301070213318,0.0032101686891151107,-0.8884945814985648,0.005980497454825479,0.1444023723178556,-0.02047547883384151,0.0,0.0,-0.6,0.0,0.0009813308715820312,0.002573728561401367,0
0.9792757034301758,0.020183367654681206,-0.027040833607316017,0.09439726918935776,0.0032077708668720173,-0.8880330580186856,0.005062135461211272,0.14380351464515823,-0.020460366351792256,0.0,0.0,-0.6,0.0,0.0011525154113769531,0.0027649402618408203,0
1.0151522159576416,0.020183367654681206,-0.027040833607316017,0.09439726918935776,0.0032077708668720173,-0.8880330580186856,0.005062135461211272,0.14380351464515823,-0.020460366351792256,0.0,0.0,-0.6,0.0,0.00015783309936523438,0.0010733604431152344,0
1.0192534923553467,0.0201242845505476,-0.02663012221455574,0.08847623318433762,0.003209483614410008,-0.8858296921436607,-0.0040342042824739925,0.14222244068145706,-0.02047123710314121,0.0,0.0,-0.6,0.0,0.0007793903350830078,0.0018489360809326172,0
1.0293207168579102,0.020111972466111183,-0.026526236906647682,0.08731769770383835,0.0032233666985815434,-0.885417128757596,-0.005422281827793052,0.14139783622187452,-0.020560435634173008,0.0,0.0,-0.6,0.0,0.0006487369537353516,0.0016129016876220703,0
1.0391957759857178,0.0200986098498106,-0.02641664445400238,0.08611191809177399,0.0032223838072993074,-0.8849924783869183,-0.006086996116716973,0.14096672193203952,-0.02055444084708453,0.0,0.0,-0.6,0.0,0.00067138671875,0.0016660690307617188,0
1.0492596626281738,0.020070772618055344,-0.026182333007454872,0.08356273174285889,0.003228165307658176,-0.8840378387363225,-0.008731769073708446,0.140638808491556,-0.02059158862980357,0.0,0.0,-0.6,0.0,0.0006265640258789062,0.0016131401062011719,0
1.059213638305664,0.020057618618011475,-0.026055647060275078,0.08221980184316635,0.003231811498068528,-0.883541819808381,-0.010616942280134654,0.13990762611669302,-0.020615176107611047,0.0,0.0,-0.6,0.0,0.0007328987121582031,0.001802682876586914,0
1.0696218013763428,0.020057618618011475,-0.026055647060275078,0.08221980184316635,0.003231811498068528,-0.883541819808381,-0.010616942280134654,0.13990762611669302,-0.020615176107611047,0.0,0.0,-0.6,0.0,0.0002453327178955078,0.0021996498107910156,0
1.0792498588562012,0.02004394680261612,-0.026052743196487427,0.07976331561803818,0.0032592232575485622,-0.8805161489616873,-0.013752494527634737,0.13498622857226572,-0.020792063323088476,0.0,0.0,-0.6,0.0,0.0009851455688476562,0.002421855926513672,0
1.0895256996154785,0.020056918263435364,-0.026308810338377953,0.07933866232633591,0.003239149290572668,-0.8761367226051586,-0.011387297004337193,0.13101635120061084,-0.02066623301873931,0.0,0.0,-0.6,0.0,0.0009334087371826172,0.002535104751586914,0
1.0993282794952393,0.020064858719706535,-0.026550015434622765,0.07863553613424301,0.0032188900288599538,-0.8703200673776709,-0.010081830655691848,0.12541982386371434,-0.02054029737770755,0.0,0.0,-0.6,0.0,0.0008618831634521484,0.0024547576904296875,0
1.1092896461486816,0.020064858719706535,-0.026550015434622765,0.07863553613424301,0.0032188900288599538,-0.8703200673776709,-0.010081830655691848,0.12541982386371434,-0.02054029737770755,0.0,0.0,-0.6,0.0,0.00023698806762695312,0.0014684200286865234,0
1.1192741394042969,0.02005399391055107,-0.027190295979380608,0.07454844564199448,0.0030877433497308805,-0.8489158966938366,-0.0012771959725682515,0.10084830477169429,-0.019719694674244552,0.0,0.0,-0.6,0.0,0.0011358261108398438,0.0025436878204345703,0
1.1294188499450684,0.02004050463438034,-0.027378292754292488,0.07249321788549423,0.0030292167483673845,-0.8411611887873328,0.0013322656222393772,0.09105975146548229,-0.019352727055633585,0.0,0.0,-0.6,0.0,0.0011124610900878906,0.003114938735961914,0
1.1392245292663574,0.02002163603901863,-0.027553720399737358,0.07031245529651642,0.002942172899682217,-0.8334448786906332,0.0045878746740972915,0.07988478776765841,-0.018804210254901893,0.0,0.0,-0.6,0.0,0.000911712646484375,0.002366781234741211,0
1.1496028900146484,0.02002163603901863,-0.027553720399737358,0.07031245529651642,0.002942172899682217,-0.8334448786906332,0.0045878746740972915,0.07988478776765841,-0.018804210254901893,0.0,0.0,-0.6,0.0,0.00023484230041503906,0.0020813941955566406,0
1.159233570098877,0.01992970146238804,-0.028015034273266792,0.06174100562930107,0.002623454557155681,-0.8101213942871659,0.014766684904691388,0.045551748054022186,-0.016791190968884706,0.0,0.0,-0.6,0.0,0.0010483264923095703,0.0025742053985595703,0
1.1694233417510986,0.019887296482920647,-0.028147583827376366,0.05824335291981697,0.002507428515435875,-0.802530777068843,0.018089360719059113,0.034073483318411736,-0.016057693140905816,0.0,0.0,-0.6,0.0,0.0010728836059570312,0.0029609203338623047,0
1.1793951988220215,0.019839299842715263,-0.028270425274968147,0.05444648116827011,0.002391316936507232,-0.795035963994596,0.020950054586037287,0.02235207267932658,-0.015323361886267145,0.0,0.0,-0.6,0.0,0.0009691715240478516,0.0026748180389404297,0
1.1894876956939697,0.019839299842715263,-0.028270425274968147,0.05444648116827011,0.002391316936507232,-0.795035963994596,0.020950054586037287,0.02235207267932658,-0.015323361886267145,0.0,0.0,-0.6,0.0,0.00021266937255859375,0.0019655227661132812,0
1.1993858814239502,0.01965136080980301,-0.0285768061876297,0.04138297215104103,0.002002889901187834,-0.7732348524538205,0.027299250627431364,-0.013236040716807089,-0.01286038280861494,0.0,0.0,-0.6,0.0,0.0011153221130371094,0.003064393997192383,0
1.2093658447265625,0.01957106776535511,-0.028660278767347336,0.036751389503479004,0.0018506392439087142,-0.7665371380861771,0.02915994026935688,-0.024339430019975593,-0.011892803162892962,0.0,0.0,-0.6,0.0,0.0012104511260986328,0.003429889678955078,0
1.2195658683776855,0.019482215866446495,-0.028734629973769188,0.03188594430685043,0.0017141150341182373,-0.7600478522387947,0.029838427930682348,-0.03553756120192852,-0.011024524517023168,0.0,0.0,-0.6,0.0,0.0016450881958007812,0.0038383007049560547,0
1.2296748161315918,0.019482215866446495,-0.028734629973769188,0.03188594430685043,0.0017141150341182373,-0.7600478522387947,0.029838427930682348,-0.03553756120192852,-0.011024524517023168,0.0,0.0,-0.6,0.0,0.0002720355987548828,0.0025115013122558594,0
1.2392115592956543,0.01915694959461689,-0.02890600450336933,0.016014251857995987,0.0012909986046861235,-0.7415205655729278,0.03236709852881372,-0.06642255201279389,-0.00833089065443165,0.0,0.0,-0.6,0.0,0.0010945796966552734,0.002570629119873047,0
1.2494685649871826,0.019029714167118073,-0.028947485610842705,0.010341977700591087,0.001171434828320713,-0.73586999124264,0.032088456157227385,-0.07535256439565556,-0.00756855284526097,0.0,0.0,-0.6,0.0,0.0010814666748046875,0.0029866695404052734,0
1.2592577934265137,0.01889622211456299,-0.028979681432247162,0.0045052627101540565,0.001048485032422441,-0.7304866238830161,0.03012811781295755,-0.08518830383799544,-0.006782997519324645,0.0,0.0,-0.6,0.0,0.0008823871612548828,0.0025835037231445312,0
1.2694528102874756,0.01889622211456299,-0.028979681432247162,0.0045052627101540565,0.001048485032422441,-0.7304866238830161,0.03012811781295755,-0.08518830383799544,-0.006782997519324645,0.0,0.0,-0.6,0.0,0.00022149085998535156,0.0019583702087402344,0
1.2796449661254883,0.018597781658172607,-0.029013877734541893,-0.007611257489770651,0.0007810714519543145,-0.7202855991119907,0.02562640170078059,-0.10009810724429138,-0.0050724970077294556,0.0,0.0,-0.6,0.0,0.0010929107666015625,0.002806425094604492,0
1.289405107498169,0.0182631928473711,-0.02901102788746357,-0.019714482128620148,0.0005262745574610728,-0.7113285942753909,0.022330906581517852,-0.11189432944747754,-0.003442165398748018,0.0,0.0,-0.6,0.0,0.0010683536529541016,0.0025665760040283203,0
1.2995553016662598,0.01808030530810356,-0.028999505564570427,-0.025935713201761246,0.00038777917665123323,-0.7072011964214718,0.020572240074833253,-0.11858598673704682,-0.0025558636777549162,0.0,0.0,-0.6,0.0,0.0008699893951416016,0.0023069381713867188,0
1.3096463680267334,0.01808030530810356,-0.028999505564570427,-0.025935713201761246,0.00038777917665123323,-0.7072011964214718,0.020572240074833253,-0.11858598673704682,-0.0025558636777549162,0.0,0.0,-0.6,0.0,0.0002777576446533203,0.002096414566040039,0
1.319282054901123,0.017476752400398254,-0.02891526184976101,-0.04514884203672409,0.00011261181623874148,-0.695867646646061,0.010863520628488079,-0.12707332308003852,-0.0007880029840067329,0.0,0.0,-0.6,0.0,0.0015766620635986328,0.0035071372985839844,0
1.3294312953948975,0.017260584980249405,-0.02887032926082611,-0.0517064593732357,3.0081831162478228e-05,-0.6924989211377793,0.007744750163400764,-0.12768291068437565,-0.00025706832108024296,0.0,0.0,-0.6,0.0,0.001298666000366211,0.003506183624267578,0
1.3392975330352783,0.01703847199678421,-0.028817923739552498,-0.058324575424194336,-5.611593067288466e-05,-0.6892868577153883,0.004505509117871755,-0.12680584257430053,0.00029771271092636536,0.0,0.0,-0.6,0.0,0.0007956027984619141,0.0023365020751953125,0
1.3493235111236572,0.01703847199678421,-0.028817923739552498,-0.058324575424194336,-5.611593067288466e-05,-0.6892868577153883,0.004505509117871755,-0.12680584257430053,0.00029771271092636536,0.0,0.0,-0.6,0.0,0.0001728534698486328,0.0017464160919189453,0
1.3592641353607178,0.01633935421705246,-0.028614388778805733,-0.07798133790493011,-0.00033056712700683586,-0.6808781345077375,-0.005951445687181894,-0.12205528791061024,0.0020643967634036546,0.0,0.0,-0.6,0.0,0.000762939453125,0.0021593570709228516,0
1.3693382740020752,0.016097234562039375,-0.02853112481534481,-0.08453170955181122,-0.00040920752142737944,-0.6784489020089375,-0.00985793169751857,-0.11880195912870595,0.002571566898277209,0.0,0.0,-0.6,0.0,0.0008952617645263672,0.002822399139404297,0
1.3794071674346924,0.01584991067647934,-0.028439141809940338,-0.09111058712005615,-0.000470452718225564,-0.6761388905732396,-0.014607773382886748,-0.11576570558686212,0.0029677062596713765,0.0,0.0,-0.6,0.0,0.0011582374572753906,0.002994537353515625,0
1.3899307250976562,0.01584991067647934,-0.028439141809940338,-0.09111058712005615,-0.000470452718225564,-0.6761388905732396,-0.014607773382886748,-0.11576570558686212,0.0029677062596713765,0.0,0.0,-0.6,0.0,0.0002696514129638672,0.002677440643310547,0
1.3995966911315918,0.015084189362823963,-0.028111938387155533,-0.11095409095287323,-0.0006644753521717693,-0.6701440792555232,-0.02667220918151857,-0.09874547974474784,0.0042215439764846045,0.0,0.0,-0.6,0.0,0.0018529891967773438,0.00512385368347168,0
1.4093780517578125,0.014824720099568367,-0.027987217530608177,-0.11758200824260712,-0.0007198859901198027,-0.6684498304825424,-0.029904822817506563,-0.09230915928737517,0.004579697399634568,0.0,0.0,-0.6,0.0,0.0011374950408935547,0.0026760101318359375,0
1.4194755554199219,0.014563383534550667,-0.02785579487681389,-0.12420748174190521,-0.0007745739455404773,-0.6668349883311537,-0.03289214097943122,-0.08460554565769592,0.00493330266495458,0.0,0.0,-0.6,0.0,0.0009913444519042969,0.0025429725646972656,0
1.4294021129608154,0.014563383534550667,-0.02785579487681389,-0.12420748174190521,-0.0007745739455404773,-0.6668349883311537,-0.03289214097943122,-0.08460554565769592,0.00493330266495458,0.0,0.0,-0.6,0.0,0.0002613067626953125,0.0018165111541748047,0
1.4401967525482178,0.01377781480550766,-0.027419952675700188,-0.14315207302570343,-0.0009102509179078804,-0.663095781981323,-0.04099754467498268,-0.06060374104939734,0.005811327792125413,0.0,0.0,-0.6,0.0,0.0014269351959228516,0.0034856796264648438,0
1.449352502822876,0.013514895923435688,-0.02726116217672825,-0.14944903552532196,-0.0009511484010357789,-0.6619820559508532,-0.04340716536835786,-0.05255052608821957,0.0060756879505153415,0.0,0.0,-0.6,0.0,0.0009198188781738281,0.0021860599517822266,0
1.4592528343200684,0.013318302109837532,-0.027101196348667145,-0.155729740858078,-0.0009770351837252455,-0.6610371408071279,-0.04678789772929344,-0.04330434767604742,0.006244012619117396,0.0,0.0,-0.6,0.0,0.0008630752563476562,0.002062082290649414,0
1.4696528911590576,0.013318302109837532,-0.027101196348667145,-0.155729740858078,-0.0009770351837252455,-0.6610371408071279,-0.04678789772929344,-0.04330434767604742,0.006244012619117396,0.0,0.0,-0.6,0.0,0.0002429485321044922,0.0018389225006103516,0
1.479241132736206,0.012980567291378975,-0.026927195489406586,-0.1718815118074417,-0.0010512089892664655,-0.6601662370238416,-0.050127166368742815,-0.012373817189361187,0.006727216581846868,0.0,0.0,-0.6,0.0,0.0009927749633789062,0.002274036407470703,0
1.489478588104248,0.01303119957447052,-0.02708331309258938,-0.17556385695934296,-0.0010552843306550924,-0.6609684392475882,-0.04767209099281785,0.0002148453830707882,0.00675787251054458,0.0,0.0,-0.6,0.0,0.0009243488311767578,0.002229452133178711,0
1.499311923980713,0.013080394826829433,-0.027226457372307777,-0.17904570698738098,-0.0010640007290019285,-0.6619617881988152,-0.04491479569804619,0.01373030193328006,0.006818563306548716,0.0,0.0,-0.6,0.0,0.0009210109710693359,0.002343416213989258,0
1.5094592571258545,0.013080394826829433,-0.027226457372307777,-0.17904570698738098,-0.0010640007290019285,-0.6619617881988152,-0.04491479569804619,0.01373030193328006,0.006818563306548716,0.0,0.0,-0.6,0.0,0.0002465248107910156,0.0022504329681396484,0
1.5197553634643555,0.013223221525549889,-0.027590736746788025,-0.18958859145641327,-0.0011022043619180791,-0.6649529182631354,-0.0319874816044542,0.05027004970558893,0.007078606851015913,0.0,0.0,-0.6,0.0,0.0022313594818115234,0.006797313690185547,0
1.5293290615081787,0.013267412781715393,-0.02769036963582039,-0.1931237131357193,-0.0010998420454970304,-0.6659733438845219,-0.02840383973574086,0.060135120306805186,0.007067672816080018,0.0,0.0,-0.6,0.0,0.0016388893127441406,0.0031630992889404297,0
1.5394649505615234,0.013310570269823074,-0.02777886763215065,-0.19666461646556854,-0.001082855492482808,-0.6669611842670904,-0.025045652852333174,0.07044489711498658,0.006962908422316356,0.0,0.0,-0.6,0.0,0.0018038749694824219,0.003929615020751953,0
1.549494743347168,0.013310570269823074,-0.02777886763215065,-0.19666461646556854,-0.001082855492482808,-0.6669611842670904,-0.025045652852333174,0.07044489711498658,0.006962908422316356,0.0,0.0,-0.6,0.0,0.0003178119659423828,0.002266407012939453,0
1.5596249103546143,0.013442367315292358,-0.02798076532781124,-0.20731261372566223,-0.0010266911400712464,-0.6696704740290467,-0.01233896933711056,0.09804730212426142,0.006614315764685015,0.0,0.0,-0.6,0.0,0.002119779586791992,0.005196332931518555,0
1.5693867206573486,0.01348742563277483,-0.02803015522658825,-0.21062977612018585,-0.0010112248895110332,-0.6706492175842623,-0.008046139753292584,0.10532401394303079,0.006517983515823,0.0,0.0,-0.6,0.0,0.0010380744934082031,0.002748727798461914,0
1.580007553100586,0.01353429351001978,-0.028070397675037384,-0.21395277976989746,-0.0009783125958431834,-0.6715243886612292,-0.0045036770528159775,0.11338198903431236,0.006309221488388229,0.0,0.0,-0.6,0.0,0.0019927024841308594,0.0063283443450927734,0
1.5898690223693848,0.01353429351001978,-0.028070397675037384,-0.21395277976989746,-0.0009783125958431834,-0.6715243886612292,-0.0045036770528159775,0.11338198903431236,0.006309221488388229,0.0,0.0,-0.6,0.0,0.0003311634063720703,0.002917766571044922,0
1.5992634296417236,0.013693982735276222,-0.028127523139119148,-0.2239503562450409,-0.0008494641854542667,-0.6739827128543344,0.0018472870185758925,0.1339636839330858,0.005485156102159654,0.0,0.0,-0.6,0.0,0.00075531005859375,0.00188446044921875,0
1.609344482421875,0.0137557378038764,-0.028128277510404587,-0.2272888720035553,-0.0008070967135436954,-0.6746942006199784,0.0055293263421708925,0.13919071307568176,0.005214719793116808,0.0,0.0,-0.6,0.0,0.0008723735809326172,0.0019783973693847656,0
1.6197006702423096,0.013820705004036427,-0.028122562915086746,-0.23063018918037415,-0.0007623573645374125,-0.6753393197357704,0.00872894158276206,0.14265316323882984,0.00492840250684246,0.0,0.0,-0.6,0.0,0.0017533302307128906,0.00447392463684082,0
1.6299841403961182,0.013820705004036427,-0.028122562915086746,-0.23063018918037415,-0.0007623573645374125,-0.6753393197357704,0.00872894158276206,0.14265316323882984,0.00492840250684246,0.0,0.0,-0.6,0.0,0.00047135353088378906,0.003242015838623047,0
1.6404407024383545,0.013958272524178028,-0.028086472302675247,-0.2373247742652893,-0.0006887665139139249,-0.6763612269232536,0.010666406182900736,0.14631706665234898,0.004453502732445847,0.0,0.0,-0.6,0.0,0.0019366741180419922,0.00471043586730957,0
1.649613857269287,0.014103002846240997,-0.028018491342663765,-0.24354368448257446,-0.0006194548681174928,-0.6774268182784416,0.014133415123732992,0.14534329690435618,0.004006069128577703,0.0,0.0,-0.6,0.0,0.0012750625610351562,0.003081083297729492,0
1.6593661308288574,0.014098847284913063,-0.02798117697238922,-0.24666820466518402,-0.0005662610948991039,-0.6779176100118064,0.015854314507377315,0.1427142425835474,0.003663274155112603,0.0,0.0,-0.6,0.0,0.0010106563568115234,0.002555370330810547,0
1.6695528030395508,0.014098847284913063,-0.02798117697238922,-0.24666820466518402,-0.0005662610948991039,-0.6779176100118064,0.015854314507377315,0.1427142425835474,0.003663274155112603,0.0,0.0,-0.6,0.0,0.00025725364685058594,0.001783609390258789,0
1.6798453330993652,0.014096788130700588,-0.0278907660394907,-0.25294387340545654,-0.00046280351988167506,-0.6787447566653168,0.019852896945436776,0.1343338439331714,0.0029961460773241036,0.0,0.0,-0.6,0.0,0.0010645389556884766,0.002604246139526367,0
1.6895065307617188,0.01409912295639515,-0.027838213369250298,-0.2560961842536926,-0.00039362737653479815,-0.6790550758671612,0.020858393953415367,0.1291785801325955,0.0025499228982006307,0.0,0.0,-0.6,0.0,0.000980377197265625,0.0023136138916015625,0
1.6994917392730713,0.01410708948969841,-0.027712514623999596,-0.26242586970329285,-0.000255804378803606,-0.6796544096156952,0.020061039285388705,0.11575836833242621,0.0016598021078329792,0.0,0.0,-0.6,0.0,0.0009543895721435547,0.0022988319396972656,0
1.7096667289733887,0.01410708948969841,-0.027712514623999596,-0.26242586970329285,-0.000255804378803606,-0.6796544096156952,0.020061039285388705,0.11575836833242621,0.0016598021078329792,0.0,0.0,-0.6,0.0,0.0002663135528564453,0.001875162124633789,0
1.7192919254302979,0.014125296846032143,-0.02747354283928871,-0.2714466452598572,-0.00011835528730559113,-0.6804207207535794,0.018856491684904404,0.09351442844271646,0.000768374532781171,0.0,0.0,-0.6,0.0,0.001027822494506836,0.0023832321166992188,0
1.7293217182159424,0.014131148345768452,-0.027383694425225258,-0.27438783645629883,-6.063996487291606e-05,-0.6807079785590012,0.01802307761023787,0.08349417526873015,0.0003953094314905195,0.0,0.0,-0.6,0.0,0.0010266304016113281,0.0024297237396240234,0
1.7393503189086914,0.01413425151258707,-0.027288541197776794,-0.2773420512676239,-2.4208068841551233e-05,-0.6808966046870598,0.017022664442873994,0.07265785614730436,0.0001583551201646112,0.0,0.0,-0.6,0.0,0.0009844303131103516,0.0025556087493896484,0
1.7495231628417969,0.01413425151258707,-0.027288541197776794,-0.2773420512676239,-2.4208068841551233e-05,-0.6808966046870598,0.017022664442873994,0.07265785614730436,0.0001583551201646112,0.0,0.0,-0.6,0.0,0.00025343894958496094,0.001703500747680664,0
1.7595555782318115,0.014131058007478714,-0.027081305161118507,-0.28328850865364075,8.556859563653279e-05,-0.6812025417196856,0.013685114503878904,0.05216422778706774,-0.0005508266453687071,0.0,0.0,-0.6,0.0,0.001051187515258789,0.002544403076171875,0
1.7693548202514648,0.014117770828306675,-0.02685241773724556,-0.2892813980579376,0.0001425221063461589,-0.6813825369002781,0.010009948889005941,0.032261235591407415,-0.0009214346625346903,0.0,0.0,-0.6,0.0,0.0010037422180175781,0.0023064613342285156,0
1.779285192489624,0.014106986112892628,-0.02672988921403885,-0.2922941744327545,0.00019299717746320872,-0.6814159623475867,0.007724435647276393,0.022648247106397654,-0.0012468253747259976,0.0,0.0,-0.6,0.0,0.0009288787841796875,0.0022516250610351562,0
1.7898385524749756,0.014106986112892628,-0.02672988921403885,-0.2922941744327545,0.00019299717746320872,-0.6814159623475867,0.007724435647276393,0.022648247106397654,-0.0012468253747259976,0.0,0.0,-0.6,0.0,0.00026798248291015625,0.0018193721771240234,0
1.7992708683013916,0.014075059443712234,-0.026470083743333817,-0.2978000044822693,0.0002763256334809235,-0.6817341838885844,0.004930622282045206,0.0037562234520881867,-0.0017849246000630535,0.0,0.0,-0.6,0.0,0.0010025501251220703,0.0023202896118164062,0
1.8095083236694336,0.014027457684278488,-0.02619200386106968,-0.3033629059791565,0.000350123900631542,-0.6819991887557987,-0.0001460082767170847,-0.015786082090640495,-0.002260284627097623,0.0,0.0,-0.6,0.0,0.0010061264038085938,0.002418041229248047,0
1.819343090057373,0.013995853252708912,-0.026045940816402435,-0.30616286396980286,0.0003726823967965071,-0.6821118476898796,-0.0020755190038348084,-0.025254474106828403,-0.002406110529700171,0.0,0.0,-0.6,0.0,0.0008518695831298828,0.0023012161254882812,0
1.8294661045074463,0.013995853252708912,-0.026045940816402435,-0.30616286396980286,0.0003726823967965071,-0.6821118476898796,-0.0020755190038348084,-0.025254474106828403,-0.002406110529700171,0.0,0.0,-0.6,0.0,0.0002460479736328125,0.0017452239990234375,0
1.8393399715423584,0.013914273120462894,-0.025741392746567726,-0.3117971420288086,0.0004218494483300142,-0.682228569067811,-0.0062837833424037835,-0.04398054199538287,-0.0027229545673044865,0.0,0.0,-0.6,0.0,0.0010645389556884766,0.003217935562133789,0
1.849236011505127,0.013808099552989006,-0.02542119473218918,-0.31746935844421387,0.00046872284451445037,-0.6823444567250385,-0.00917659818767264,-0.05967111062023961,-0.0030247250949778284,0.0,0.0,-0.6,0.0,0.001051187515258789,0.003093242645263672,0
1.8593077659606934,0.013746675103902817,-0.025256533175706863,-0.3200630247592926,0.00048427975537503504,-0.6824517735121831,-0.010346640621441727,-0.06618405080689957,-0.0031248924379387163,0.0,0.0,-0.6,0.0,0.0008096694946289062,0.0026166439056396484,0
1.869713544845581,0.013746675103902817,-0.025256533175706863,-0.3200630247592926,0.00048427975537503504,-0.6824517735121831,-0.010346640621441727,-0.06618405080689957,-0.0031248924379387163,0.0,0.0,-0.6,0.0,0.0003056526184082031,0.002722024917602539,0
1.8796324729919434,0.013348930515348911,-0.025226619094610214,-0.3269120752811432,0.0005340031876888503,-0.6831577495197606,-0.008989983291823551,-0.0822566393376073,-0.0034472875347313185,0.0,0.0,-0.6,0.0,0.0014495849609375,0.0038988590240478516,0
1.8894689083099365,0.013086216524243355,-0.02552328072488308,-0.32856079936027527,0.0005544699211703517,-0.6838046005745075,-0.005319611480656225,-0.08856590807707883,-0.0035819838964711217,0.0,0.0,-0.6,0.0,0.0010693073272705078,0.0030546188354492188,0
1.899322271347046,0.012820897623896599,-0.0258062481880188,-0.3302382528781891,0.0005743870051933009,-0.6844349828199001,-0.0016031085129564286,-0.09402440508245906,-0.0037129304487818426,0.0,0.0,-0.6,0.0,0.0009763240814208984,0.0027806758880615234,0
1.9094874858856201,0.012820897623896599,-0.0258062481880188,-0.3302382528781891,0.0005743870051933009,-0.6844349828199001,-0.0016031085129564286,-0.09402440508245906,-0.0037129304487818426,0.0,0.0,-0.6,0.0,0.00024056434631347656,0.0016393661499023438,0
1.9195096492767334,0.012009370140731335,-0.02657897211611271,-0.33524465560913086,0.0006192980582879714,-0.6861044180396239,0.009895424844461927,-0.10829611065453144,-0.004009346768874397,0.0,0.0,-0.6,0.0,0.0008721351623535156,0.0025222301483154297,0
1.929337501525879,0.011731919832527637,-0.026812896132469177,-0.3368425965309143,0.0006221103385351638,-0.6866461719431286,0.013945394487601483,-0.11176724799135324,-0.00402966074208654,0.0,0.0,-0.6,0.0,0.0008265972137451172,0.0021648406982421875,0
1.9392082691192627,0.011451205238699913,-0.027036091312766075,-0.33846965432167053,0.0006222379832993808,-0.6871733927842103,0.018066277839229834,-0.11436141013965893,-0.004032250371621224,0.0,0.0,-0.6,0.0,0.000926971435546875,0.0028116703033447266,0
1.9497413635253906,0.011451205238699913,-0.027036091312766075,-0.33846965432167053,0.0006222379832993808,-0.6871733927842103,0.018066277839229834,-0.11436141013965893,-0.004032250371621224,0.0,0.0,-0.6,0.0,0.00032210350036621094,0.0022640228271484375,0
1.9594600200653076,0.010591360740363598,-0.027645505964756012,-0.3435090482234955,0.0005708384768312912,-0.6885961867093298,0.02943134787019696,-0.11693207379891954,-0.0037045707862104777,0.0,0.0,-0.6,0.0,0.0012722015380859375,0.0032231807708740234,0
1.9693634510040283,0.01030034851282835,-0.027828048914670944,-0.34523943066596985,0.0005410544969938493,-0.688934093143712,0.03228975792251615,-0.11611375257476163,-0.0035131159435395297,0.0,0.0,-0.6,0.0,0.0008406639099121094,0.0029506683349609375,0
1.9793262481689453,0.010007007978856564,-0.028000246733427048,-0.3467691242694855,0.000513998526959919,-0.6893516029216461,0.03449039509848807,-0.115609673422667,-0.003338280915314701,0.0,0.0,-0.6,0.0,0.0008394718170166016,0.0026559829711914062,0
1.9897065162658691,0.010007007978856564,-0.028000246733427048,-0.3467691242694855,0.000513998526959919,-0.6893516029216461,0.03449039509848807,-0.115609673422667,-0.003338280915314701,0.0,0.0,-0.6,0.0,0.00025534629821777344,0.0017597675323486328,0
1.9993696212768555,0.009412702172994614,-0.02831225097179413,-0.349917471408844,0.000469482462105942,-0.6900794681904032,0.036481584241101164,-0.11194379640472678,-0.0030478527693973663,0.0,0.0,-0.6,0.0,0.001035451889038086,0.0025572776794433594,0
2.009403705596924,0.008815468288958073,-0.028581948950886726,-0.35318267345428467,0.0004223066146993069,-0.6905855661240564,0.03911905035252679,-0.10522843779702444,-0.0027393307101244257,0.0,0.0,-0.6,0.0,0.0010068416595458984,0.0024437904357910156,0
2.019362449645996,0.008514957502484322,-0.02870294824242592,-0.3548572063446045,0.0003975448051014335,-0.6907833384564644,0.03962818869959326,-0.10116261853337553,-0.002576841735970926,0.0,0.0,-0.6,0.0,0.000774383544921875,0.0021467208862304688,0
2.0295464992523193,0.008514957502484322,-0.02870294824242592,-0.3548572063446045,0.0003975448051014335,-0.6907833384564644,0.03962818869959326,-0.10116261853337553,-0.002576841735970926,0.0,0.0,-0.6,0.0,0.0002701282501220703,0.0026209354400634766,0
2.039280414581299,0.0076148491352796555,-0.02901257574558258,-0.36003607511520386,0.00034234883536779026,-0.6912662845462686,0.03994629662027692,-0.08444257087165846,-0.0022100379188376004,0.0,0.0,-0.6,0.0,0.0011641979217529297,0.0027513504028320312,0
2.049457550048828,0.0073169865645468235,-0.02909807115793228,-0.3615715503692627,0.0002984602999787084,-0.6914689980208482,0.03834491540539217,-0.07866265618115204,-0.0019243874806748205,0.0,0.0,-0.6,0.0,0.0013518333435058594,0.003738880157470703,0
2.0594208240509033,0.007020270451903343,-0.02917475812137127,-0.3631359934806824,0.00026268961506571584,-0.6916922118616097,0.03761838535713205,-0.07225343416530403,-0.0016906474854300568,0.0,0.0,-0.6,0.0,0.0009667873382568359,0.0027828216552734375,0
2.0697402954101562,0.007020270451903343,-0.02917475812137127,-0.3631359934806824,0.00026268961506571584,-0.6916922118616097,0.03761838535713205,-0.07225343416530403,-0.0016906474854300568,0.0,0.0,-0.6,0.0,0.0003445148468017578,0.002613067626953125,0
2.0799882411956787,0.006724979728460312,-0.02924378588795662,-0.3647281527519226,0.0002458666021793463,-0.6918589531362886,0.03633314546884715,-0.06588627479925259,-0.0015781912925439535,0.0,0.0,-0.6,0.0,0.0013263225555419922,0.004033327102661133,0
2.0895848274230957,0.0058524166233837605,-0.029402384534478188,-0.3696717917919159,0.00019029627515237263,-0.6920720842214696,0.029494085240254132,-0.04478479475678493,-0.0012080254204567436,0.0,0.0,-0.6,0.0,0.0011410713195800781,0.0026388168334960938,0
2.099393129348755,0.00556735647842288,-0.029437914490699768,-0.3713737726211548,0.00018691450110014724,-0.6920857458152606,0.02690858245788828,-0.03654263438512298,-0.0011815130751458877,0.0,0.0,-0.6,0.0,0.0005369186401367188,0.0014798641204833984,0
2.1094725131988525,0.00556735647842288,-0.029437914490699768,-0.3713737726211548,0.00018691450110014724,-0.6920857458152606,0.02690858245788828,-0.03654263438512298,-0.0011815130751458877,0.0,0.0,-0.6,0.0,0.00019598007202148438,0.0013642311096191406,0
2.1191835403442383,0.004741181619465351,-0.029491588473320007,-0.37636804580688477,5.573273772820284e-05,-0.6921804329548162,0.01750952948738346,-0.014003481028266243,-0.0003299888015329887,0.0,0.0,-0.6,0.0,0.0006499290466308594,0.0014770030975341797,0
2.129223585128784,0.004473902750760317,-0.029491784051060677,-0.37791091203689575,1.692551546021464e-05,-0.6922656444859046,0.014560239704698847,-0.006837251220260531,-7.796776349196031e-05,0.0,0.0,-0.6,0.0,0.0005424022674560547,0.001631021499633789,0
2.13934326171875,0.004212263040244579,-0.029483867809176445,-0.37948140501976013,-4.518793537811065e-06,-0.6923230249108303,0.011156087865715284,0.0012687826076835673,6.278982216504652e-05,0.0,0.0,-0.6,0.0,0.00057220458984375,0.0016126632690429688,0
2.1494033336639404,0.004212263040244579,-0.029483867809176445,-0.37948140501976013,-4.518793537811065e-06,-0.6923230249108303,0.011156087865715284,0.0012687826076835673,6.278982216504652e-05,0.0,0.0,-0.6,0.0,0.0001590251922607422,0.0014111995697021484,0
2.1593234539031982,0.0037099423352628946,-0.029442328959703445,-0.38270407915115356,-5.0058449619807586e-05,-0.692345438021477,0.002616303244417563,0.017215237545464477,0.00035972362200121464,0.0,0.0,-0.6,0.0,0.0008671283721923828,0.002315521240234375,0
2.1694037914276123,0.0032389953266829252,-0.029364755377173424,-0.3860284090042114,-9.250628449972422e-05,-0.6922394792464306,-0.004558338321679278,0.031214775969758992,0.0006359588914209232,0.0,0.0,-0.6,0.0,0.000885009765625,0.002230405807495117,0
2.1793770790100098,0.0030149114318192005,-0.029313772916793823,-0.3877277672290802,-0.00013375576435331398,-0.6921281843121732,-0.009506430551924773,0.03813857944266946,0.0009008359545149639,0.0,0.0,-0.6,0.0,0.0008060932159423828,0.0024566650390625,0
2.1898553371429443,0.0030149114318192005,-0.029313772916793823,-0.3877277672290802,-0.00013375576435331398,-0.6921281843121732,-0.009506430551924773,0.03813857944266946,0.0009008359545149639,0.0,0.0,-0.6,0.0,0.00026702880859375,0.0025534629821777344,0
2.199253559112549,0.002385161817073822,-0.029103495180606842,-0.3924482762813568,-0.00020126742761881412,-0.6919962287207478,-0.021934293813719287,0.05237982128140983,0.0013332016485518247,0.0,0.0,-0.6,0.0,0.0008022785186767578,0.0024552345275878906,0
2.2094647884368896,0.0021882429718971252,-0.029015501961112022,-0.3939867913722992,-0.0002224028765324693,-0.691995011887124,-0.02553634854500869,0.0565745089387609,0.0014682303290651096,0.0,0.0,-0.6,0.0,0.0007684230804443359,0.0026960372924804688,0
2.2192952632904053,0.0019985625986009836,-0.02891833893954754,-0.3955507278442383,-0.00023423120416764313,-0.6919690010078398,-0.029858572189294344,0.06073668442778606,0.0015429550191140087,0.0,0.0,-0.6,0.0,0.0007457733154296875,0.0021796226501464844,0
2.2295286655426025,0.0019985625986009836,-0.02891833893954754,-0.3955507278442383,-0.00023423120416764313,-0.6919690010078398,-0.029858572189294344,0.06073668442778606,0.0015429550191140087,0.0,0.0,-0.6,0.0,0.00025582313537597656,0.0023097991943359375,0
2.2392609119415283,0.00147312693297863,-0.02857757732272148,-0.4003782868385315,-0.0003147101794225201,-0.6919030440807811,-0.03889966892540886,0.06888158380066405,0.002054624624364476,0.0,0.0,-0.6,0.0,0.0008053779602050781,0.0025861263275146484,0
2.249401569366455,0.001313934102654457,-0.028448104858398438,-0.40203118324279785,-0.00035083575631936225,-0.6917924367934977,-0.04192873603470441,0.0718424489207785,0.0022844161148113926,0.0,0.0,-0.6,0.0,0.0008115768432617188,0.002765655517578125,0
2.259265661239624,0.0011639060685411096,-0.02830948866903782,-0.4037051796913147,-0.0003743079482569262,-0.6916995221751272,-0.04552076842787859,0.07423773185100262,0.0024325997961928392,0.0,0.0,-0.6,0.0,0.0007634162902832031,0.002463817596435547,0
2.26965594291687,0.0011639060685411096,-0.02830948866903782,-0.4037051796913147,-0.0003743079482569262,-0.6916995221751272,-0.04552076842787859,0.07423773185100262,0.0024325997961928392,0.0,0.0,-0.6,0.0,0.0002543926239013672,0.002542734146118164,0
2.2792608737945557,0.0008113626390695572,-0.028071707114577293,-0.4068373143672943,-0.00038763320997543376,-0.6924781247989871,-0.049426636913042866,0.07737562134490793,0.0025145766922774937,0.0,0.0,-0.6,0.0,0.0008454322814941406,0.002522706985473633,0
2.2896125316619873,0.0007427199743688107,-0.028122402727603912,-0.40711504220962524,-0.00039034833916405036,-0.6931715559863,-0.049738287201959164,0.07888550072879223,0.002531573819751126,0.0,0.0,-0.6,0.0,0.0007469654083251953,0.0026617050170898438,0
2.2992701530456543,0.0006814645603299141,-0.028159411624073982,-0.4074385464191437,-0.00041063958521108133,-0.6938556294833829,-0.049052909485284533,0.07934963689884555,0.0026609180298420246,0.0,0.0,-0.6,0.0,0.0007758140563964844,0.0025734901428222656,0
2.309497833251953,0.0006814645603299141,-0.028159411624073982,-0.4074385464191437,-0.00041063958521108133,-0.6938556294833829,-0.049052909485284533,0.07934963689884555,0.0026609180298420246,0.0,0.0,-0.6,0.0,0.0002465248107910156,0.0024471282958984375,0
2.3193862438201904,0.0005791428848169744,-0.028201565146446228,-0.4082159101963043,-0.0004385566830253432,-0.6950914514151888,-0.04528063627751028,0.07876895433203854,0.0028390576515685303,0.0,0.0,-0.6,0.0,0.0008242130279541016,0.0028460025787353516,0
2.3294544219970703,0.0004999425145797431,-0.028200415894389153,-0.4091629087924957,-0.00043742228863222026,-0.6961029591627711,-0.041069546907599945,0.07598313135382224,0.002829923364515386,0.0,0.0,-0.6,0.0,0.0012280941009521484,0.0041468143463134766,0
2.3400022983551025,0.00046945063513703644,-0.02818528190255165,-0.409458726644516,-0.0004307330909916336,-0.6967296502252133,-0.039207020755240664,0.07458350685120893,0.00278582713496206,0.0,0.0,-0.6,0.0,0.0010979175567626953,0.003072023391723633,0
2.349742889404297,0.00046945063513703644,-0.02818528190255165,-0.409458726644516,-0.0004307330909916336,-0.6967296502252133,-0.039207020755240664,0.07458350685120893,0.00278582713496206,0.0,0.0,-0.6,0.0,0.00028634071350097656,0.0021886825561523438,0
2.359401226043701,0.0004092809103894979,-0.02808591164648533,-0.4106059968471527,-0.00039228892533947006,-0.698266018750741,-0.030006703796369542,0.0667032817277385,0.0025355225602106905,0.0,0.0,-0.6,0.0,0.0009157657623291016,0.0023834705352783203,0
2.369476318359375,0.00039765131077729166,-0.028036611154675484,-0.411073237657547,-0.00038378117813030557,-0.6986793458705506,-0.02796648704899126,0.06324222505468602,0.0024787438760077427,0.0,0.0,-0.6,0.0,0.0007731914520263672,0.0021317005157470703,0
2.379271984100342,0.000390928442357108,-0.02797795459628105,-0.4115813672542572,-0.0003721068714082191,-0.6990480044815828,-0.025546355177798095,0.05994014480261551,0.0024018571667601455,0.0,0.0,-0.6,0.0,0.0007281303405761719,0.0021102428436279297,0
2.3896777629852295,0.000390928442357108,-0.02797795459628105,-0.4115813672542572,-0.0003721068714082191,-0.6990480044815828,-0.025546355177798095,0.05994014480261551,0.0024018571667601455,0.0,0.0,-0.6,0.0,0.0003380775451660156,0.002290010452270508,0
2.399479389190674,0.0003951323451474309,-0.027752526104450226,-0.41309985518455505,-0.000347542058033823,-0.6998894427574868,-0.018667363510989143,0.0494167277026762,0.002237477815533641,0.0,0.0,-0.6,0.0,0.0010101795196533203,0.002703428268432617,0
