time,x,y,z,yaw,throttle,roll_rate,pitch_rate,yaw_rate,x_ref,y_ref,z_ref,yaw_ref,pred_time,nr_time,ctrl_callback_time,metadata
9.5367431640625e-07,-0.022268835455179214,-0.004238984547555447,0.14771117269992828,-0.025276418097863247,0.7169922735252764,-0.003211957635357976,-0.0386582687497139,0.00947546772658825,0.0,0.0,-0.6,0.0,0.4649507999420166,0.4649507999420166,0.5297236442565918,Sim
0.529979944229126,-0.022268835455179214,-0.004238984547555447,0.14771117269992828,-0.025276418097863247,0.735320410082263,-0.005194884724915028,-0.06089000031352043,0.01604139432311058,0.0,0.0,-0.6,0.0,0.0002391338348388672,0.0002391338348388672,0.0034356117248535156,jax_reg_wardi
0.539708137512207,-0.017963288351893425,0.0033366186544299126,0.1665029376745224,-0.02556522162793018,0.7505060258457902,-0.014520150609314442,-0.07165179401636124,0.020559530705213547,0.0,0.0,-0.6,0.0,0.00024819374084472656,0.00024819374084472656,0.0029931068420410156,2x Speed
0.5497260093688965,-0.018147869035601616,0.003641737625002861,0.16762372851371765,-0.025543146204582166,0.7625038405711595,-0.020661043003201485,-0.0785389095544815,0.023665359243750572,0.0,0.0,-0.6,0.0,0.00023436546325683594,0.00023436546325683594,0.003157377243041992,circle_horz_ref_func
0.5597231388092041,-0.018147869035601616,0.003641737625002861,0.16762372851371765,-0.025543146204582166,0.7719846257245595,-0.0245975311845541,-0.08293386548757553,0.025826655328273773,0.0,0.0,-0.6,0.0,0.00023508071899414062,0.00023508071899414062,0.0033690929412841797,0
0.5698561668395996,-0.018471674993634224,0.004114087671041489,0.16940182447433472,-0.02554912662900371,0.7795700299009739,-0.02740313485264778,-0.08603111654520035,0.027329063042998314,0.0,0.0,-0.6,0.0,0.0002319812774658203,0.0002319812774658203,0.0033164024353027344,0
0.5800848007202148,-0.018471674993634224,0.004114087671041489,0.16940182447433472,-0.02554912662900371,0.7855918924651468,-0.029263919219374657,-0.08808034658432007,0.028379686176776886,0.0,0.0,-0.6,0.0,0.0002472400665283203,0.0002472400665283203,0.0032601356506347656,0
0.5898351669311523,-0.018238404765725136,0.004289907403290272,0.16997985541820526,-0.025505905355078618,0.7904018404630574,-0.030689911916851997,-0.08947678655385971,0.02909397892653942,0.0,0.0,-0.6,0.0,0.00022530555725097656,0.00022530555725097656,0.003131389617919922,0
0.5998451709747314,-0.018238404765725136,0.004289907403290272,0.16997985541820526,-0.025505905355078618,0.7942311991314104,-0.03165503963828087,-0.09042071551084518,0.029594173654913902,0.0,0.0,-0.6,0.0,0.0002372264862060547,0.0002372264862060547,0.0031659603118896484,0
0.609917163848877,-0.01725500263273716,0.00436369376257062,0.16986651718616486,-0.025466378775413717,0.7969604227612275,-0.03224239870905876,-0.08971676975488663,0.029944436624646187,0.0,0.0,-0.6,0.0,0.00025916099548339844,0.00025916099548339844,0.0035588741302490234,0
0.6198101043701172,-0.01725500263273716,0.00436369376257062,0.16986651718616486,-0.025466378775413717,0.7991378509438918,-0.03264570236206055,-0.08923330157995224,0.030190007761120796,0.0,0.0,-0.6,0.0,0.0002529621124267578,0.0002529621124267578,0.0031409263610839844,0
0.6298882961273193,-0.016663413494825363,0.004435480572283268,0.16950540244579315,-0.025411297758830356,0.8003336534307711,-0.03273177146911621,-0.08734463900327682,0.030362267047166824,0.0,0.0,-0.6,0.0,0.0002143383026123047,0.0002143383026123047,0.0032448768615722656,0
0.6397247314453125,-0.016663413494825363,0.004435480572283268,0.16950540244579315,-0.025411297758830356,0.8012892501855329,-0.03279140964150429,-0.08603361248970032,0.030482806265354156,0.0,0.0,-0.6,0.0,0.0001919269561767578,0.0001919269561767578,0.003177642822265625,0
0.6497893333435059,-0.015869108960032463,0.0045718057081103325,0.1682530641555786,-0.025226698130145293,0.8010334691341937,-0.03247528895735741,-0.08200444281101227,0.030538586899638176,0.0,0.0,-0.6,0.0,0.000263214111328125,0.000263214111328125,0.0035860538482666016,0
0.6598770618438721,-0.015869108960032463,0.0045718057081103325,0.1682530641555786,-0.025226698130145293,0.8008290972765034,-0.032253507524728775,-0.07917909324169159,0.030576808378100395,0.0,0.0,-0.6,0.0,0.00024199485778808594,0.00024199485778808594,0.003397703170776367,0
0.6698195934295654,-0.015393312089145184,0.004682184662669897,0.16685445606708527,-0.025034951393568018,0.7999099607738543,-0.031706858426332474,-0.07462756335735321,0.0305673498660326,0.0,0.0,-0.6,0.0,0.000202178955078125,0.000202178955078125,0.0031707286834716797,0
0.6800413131713867,-0.015393312089145184,0.004682184662669897,0.16685445606708527,-0.025034951393568018,0.7991743087410805,-0.03132174536585808,-0.07142114639282227,0.030559377744793892,0.0,0.0,-0.6,0.0,0.00022602081298828125,0.00022602081298828125,0.0032715797424316406,0
0.6899220943450928,-0.014749700203537941,0.004875972867012024,0.16374993324279785,-0.024667688856303167,0.7973781254298546,-0.030335647985339165,-0.0652519166469574,0.030472300946712494,0.0,0.0,-0.6,0.0,0.0002684593200683594,0.0002684593200683594,0.003393888473510742,0
0.7001912593841553,-0.014550392515957355,0.004946641158312559,0.16244761645793915,-0.02450029632656666,0.7955240086117178,-0.02938201278448105,-0.059485334903001785,0.030366025865077972,0.0,0.0,-0.6,0.0,0.00037360191345214844,0.00037360191345214844,0.006113290786743164,0
0.7097752094268799,-0.014358178712427616,0.005019967909902334,0.16101671755313873,-0.02435621830813276,0.7936198856337072,-0.028410376980900764,-0.05411376804113388,0.030254073441028595,0.0,0.0,-0.6,0.0,0.0003688335418701172,0.0003688335418701172,0.003954410552978516,0
0.7197690010070801,-0.014358178712427616,0.005019967909902334,0.16101671755313873,-0.02435621830813276,0.7920941654332238,-0.027721337974071503,-0.05030335485935211,0.030173126608133316,0.0,0.0,-0.6,0.0,0.00023555755615234375,0.00023555755615234375,0.00407719612121582,0
0.7297658920288086,-0.01381696853786707,0.005251351278275251,0.15595637261867523,-0.023846712752318183,0.7896127668823104,-0.026325233280658722,-0.04351000115275383,0.029984455555677414,0.0,0.0,-0.6,0.0,0.00026035308837890625,0.00026035308837890625,0.003450155258178711,0
0.7401375770568848,-0.01381696853786707,0.005251351278275251,0.15595637261867523,-0.023846712752318183,0.7876235125321996,-0.025331296026706696,-0.038671255111694336,0.02984759770333767,0.0,0.0,-0.6,0.0,0.000457763671875,0.000457763671875,0.006506919860839844,0
0.74981689453125,-0.01347439642995596,0.0054102796129882336,0.15195482969284058,-0.0234876956078848,0.7851955998535013,-0.023987075313925743,-0.032333917915821075,0.029656104743480682,0.0,0.0,-0.6,0.0,0.0002968311309814453,0.0002968311309814453,0.004083871841430664,0
0.7598617076873779,-0.01347439642995596,0.0054102796129882336,0.15195482969284058,-0.0234876956078848,0.7832491862436104,-0.023030348122119904,-0.02782123163342476,0.02951771952211857,0.0,0.0,-0.6,0.0,0.0002923011779785156,0.0002923011779785156,0.0037088394165039062,0
0.7698547840118408,-0.012973478063941002,0.0056487624533474445,0.14491569995880127,-0.022887457617122256,0.7804492461238183,-0.021359002217650414,-0.0203083548694849,0.02925255335867405,0.0,0.0,-0.6,0.0,0.00024247169494628906,0.00024247169494628906,0.003565549850463867,0
0.7798831462860107,-0.012808377854526043,0.0057290964759886265,0.14233794808387756,-0.02267149134730125,0.7777974923067393,-0.019831284880638123,-0.013636364601552486,0.028997043147683144,0.0,0.0,-0.6,0.0,0.00020813941955566406,0.00020813941955566406,0.003078460693359375,0
0.7897894382476807,-0.012644721195101738,0.00580925727263093,0.1396487057209015,-0.022437301979305824,0.7752681374870217,-0.018439313396811485,-0.007602405268698931,0.02874119020998478,0.0,0.0,-0.6,0.0,0.00023984909057617188,0.00023984909057617188,0.0033669471740722656,0
0.7997236251831055,-0.012644721195101738,0.00580925727263093,0.1396487057209015,-0.022437301979305824,0.7732400872612296,-0.017447812482714653,-0.003301719669252634,0.028557676821947098,0.0,0.0,-0.6,0.0,0.0002117156982421875,0.0002117156982421875,0.0031583309173583984,0
0.8098721504211426,-0.012314454652369022,0.005967521574348211,0.13394710421562195,-0.02201326841066024,0.7708318939382043,-0.015871306881308556,0.002386024221777916,0.028299059718847275,0.0,0.0,-0.6,0.0,0.0002129077911376953,0.0002129077911376953,0.003384828567504883,0
0.8198637962341309,-0.012314454652369022,0.005967521574348211,0.13394710421562195,-0.02201326841066024,0.7689011379322737,-0.014749118126928806,0.006436874158680439,0.028113145381212234,0.0,0.0,-0.6,0.0,0.0002536773681640625,0.0002536773681640625,0.0036420822143554688,0
0.8298327922821045,-0.01180516928434372,0.00619311211630702,0.12462539225816727,-0.021336693287668247,0.7662170628658848,-0.012814115732908249,0.013009496964514256,0.02776704542338848,0.0,0.0,-0.6,0.0,0.0002243518829345703,0.0002243518829345703,0.003142118453979492,0
0.8399903774261475,-0.01180516928434372,0.00619311211630702,0.12462539225816727,-0.021336693287668247,0.7640646315525246,-0.011434082873165607,0.017700331285595894,0.027517661452293396,0.0,0.0,-0.6,0.0,0.0002346038818359375,0.0002346038818359375,0.0036683082580566406,0
0.8500525951385498,-0.011448726058006287,0.006339355371892452,0.11792045086622238,-0.020890400534634306,0.7616118615710905,-0.00971012283116579,0.02332693338394165,0.027194181457161903,0.0,0.0,-0.6,0.0,0.00031876564025878906,0.00031876564025878906,0.004032135009765625,0
0.8597702980041504,-0.011448726058006287,0.006339355371892452,0.11792045086622238,-0.020890400534634306,0.7596452029762046,-0.008482435718178749,0.02733636647462845,0.02696223556995392,0.0,0.0,-0.6,0.0,0.00023889541625976562,0.00023889541625976562,0.0032727718353271484,0
0.8697414398193359,-0.010882723145186901,0.006548054050654173,0.10723104327917099,-0.020191329564050512,0.7570273478717,-0.0064155226573348045,0.03323439508676529,0.026558881625533104,0.0,0.0,-0.6,0.0,0.00023603439331054688,0.00023603439331054688,0.0034265518188476562,0
0.8800086975097656,-0.010882723145186901,0.006548054050654173,0.10723104327917099,-0.020191329564050512,0.7549279574911562,-0.004941784776747227,0.03744277358055115,0.02626943029463291,0.0,0.0,-0.6,0.0,0.00022840499877929688,0.00022840499877929688,0.003383636474609375,0
0.8899149894714355,-0.010277235880494118,0.006735484581440687,0.09584788233041763,-0.019473388328180727,0.7522550234524875,-0.0028974527958780527,0.043151043355464935,0.025811338797211647,0.0,0.0,-0.6,0.0,0.00028443336486816406,0.00028443336486816406,0.0036492347717285156,0
0.8999531269073486,-0.010277235880494118,0.006735484581440687,0.09584788233041763,-0.019473388328180727,0.750111205960726,-0.0014391652075573802,0.047226160764694214,0.0254837479442358,0.0,0.0,-0.6,0.0,0.0002694129943847656,0.0002694129943847656,0.003534078598022461,0
0.90981125831604,-0.009843826293945312,0.006855431944131851,0.0878605917096138,-0.0189799849688576,0.7477655926021061,0.00014618359273299575,0.05183206871151924,0.025074295699596405,0.0,0.0,-0.6,0.0,0.00021958351135253906,0.00021958351135253906,0.0031936168670654297,0
0.9199116230010986,-0.009843826293945312,0.006855431944131851,0.0878605917096138,-0.0189799849688576,0.745884780865574,0.0012745456770062447,0.05511266738176346,0.02478327788412571,0.0,0.0,-0.6,0.0,0.00022864341735839844,0.00022864341735839844,0.0033364295959472656,0
0.9297597408294678,-0.009145149029791355,0.007020226679742336,0.07542961090803146,-0.018317725246729637,0.7434844396905019,0.0029063073452562094,0.059618767350912094,0.024334324523806572,0.0,0.0,-0.6,0.0,0.00023889541625976562,0.00023889541625976562,0.003469228744506836,0
0.9397013187408447,-0.009145149029791355,0.007020226679742336,0.07542961090803146,-0.018317725246729637,0.7415596384095425,0.0040682521648705006,0.0628298968076706,0.024015534669160843,0.0,0.0,-0.6,0.0,0.00020623207092285156,0.00020623207092285156,0.003023862838745117,0
0.9498639106750488,-0.00864653941243887,0.007120167836546898,0.06687863916158676,-0.017878616628999863,0.7394641892302494,0.005369961727410555,0.06637196242809296,0.02362634800374508,0.0,0.0,-0.6,0.0,0.00024700164794921875,0.00024700164794921875,0.003216981887817383,0
0.959658145904541,-0.00864653941243887,0.007120167836546898,0.06687863916158676,-0.017878616628999863,0.7377843174111103,0.0062949759885668755,0.06889060884714127,0.023351021111011505,0.0,0.0,-0.6,0.0,0.00019168853759765625,0.00019168853759765625,0.0031156539916992188,0
0.9698443412780762,-0.008119185455143452,0.007208140566945076,0.05814472585916519,-0.01743214443486818,0.7359077401244709,0.007503066677600145,0.07163552939891815,0.02298416942358017,0.0,0.0,-0.6,0.0,0.00022101402282714844,0.00022101402282714844,0.0031893253326416016,0
0.9800159931182861,-0.008119185455143452,0.007208140566945076,0.05814472585916519,-0.01743214443486818,0.7344036043786004,0.008360324427485466,0.07358431816101074,0.022725220769643784,0.0,0.0,-0.6,0.0,0.0002484321594238281,0.0002484321594238281,0.003441333770751953,0
0.9898171424865723,-0.007111805956810713,0.007093097548931837,0.04459258168935776,-0.016760921919816887,0.7324540527860982,0.009662732481956482,0.07585947960615158,0.022280894219875336,0.0,0.0,-0.6,0.0,0.00021386146545410156,0.00021386146545410156,0.0031037330627441406,0
1.000096321105957,-0.0061940536834299564,0.006713047623634338,0.0352427177131176,-0.016362544227105418,0.7304181552085672,0.011310533620417118,0.0781024694442749,0.02180364727973938,0.0,0.0,-0.6,0.0,0.00023984909057617188,0.00023984909057617188,0.0035545825958251953,0
1.0099427700042725,-0.005733172409236431,0.006525428034365177,0.03053024224936962,-0.016182079584848026,0.7285555955999573,0.01284130197018385,0.07984094321727753,0.021390823647379875,0.0,0.0,-0.6,0.0,0.0002834796905517578,0.0002834796905517578,0.0035827159881591797,0
1.0197019577026367,-0.005271527450531721,0.006340092979371548,0.025795623660087585,-0.015986934559586104,0.726841883312644,0.014269845560193062,0.08126798272132874,0.02101760357618332,0.0,0.0,-0.6,0.0,0.00021982192993164062,0.00021982192993164062,0.0031125545501708984,0
1.0297703742980957,-0.0048080794513225555,0.006155331153422594,0.021042045205831528,-0.01580913882706325,0.7252559830137556,0.01557540986686945,0.08242228627204895,0.020679453387856483,0.0,0.0,-0.6,0.0,0.0002510547637939453,0.0002510547637939453,0.0032546520233154297,0
1.0396392345428467,-0.004343052394688129,0.005971914157271385,0.01627330109477043,-0.015618811660833268,0.7237822451959013,0.016794830560684204,0.08334208279848099,0.02036154642701149,0.0,0.0,-0.6,0.0,0.0001919269561767578,0.0001919269561767578,0.0029621124267578125,0
1.0498311519622803,-0.00340804411098361,0.005607816390693188,0.006661033723503351,-0.015223355587711198,0.7221944341212728,0.018193813040852547,0.0840887576341629,0.01997222565114498,0.0,0.0,-0.6,0.0,0.0002162456512451172,0.0002162456512451172,0.0031251907348632812,0
1.0599970817565918,-0.0029383411165326834,0.005426890216767788,0.0018378153908997774,-0.015018313140627997,0.720736597514696,0.019479824230074883,0.08455807715654373,0.01961233839392662,0.0,0.0,-0.6,0.0,0.00031185150146484375,0.00031185150146484375,0.004158735275268555,0
1.069822072982788,-0.002467624843120575,0.0052464124746620655,-0.0029919887892901897,-0.014842079933928332,0.7193877668723154,0.020618394017219543,0.08481457829475403,0.019285568967461586,0.0,0.0,-0.6,0.0,0.00021147727966308594,0.00021147727966308594,0.003110647201538086,0
1.0797719955444336,-0.0015283258398994803,0.004889206029474735,-0.012663053348660469,-0.014516654498242005,0.7179651581821808,0.02183743566274643,0.08449126034975052,0.018918905407190323,0.0,0.0,-0.6,0.0,0.00023221969604492188,0.00023221969604492188,0.003305196762084961,0
1.0899553298950195,-0.0010614191414788365,0.004712526220828295,-0.01750015839934349,-0.014355024119577094,0.7166634863883655,0.022824158892035484,0.08385831117630005,0.018596075475215912,0.0,0.0,-0.6,0.0,0.0002415180206298828,0.0002415180206298828,0.0033545494079589844,0
1.0996599197387695,-0.0005966355092823505,0.004537852481007576,-0.022336814552545547,-0.014176482500516025,0.715458306720828,0.02356993593275547,0.08303338289260864,0.018299009650945663,0.0,0.0,-0.6,0.0,0.00020003318786621094,0.00020003318786621094,0.002973318099975586,0
1.1098706722259521,-0.00013249927724245936,0.0043642655946314335,-0.027172192931175232,-0.014008509763569914,0.7143380363829261,0.024260902777314186,0.08208560943603516,0.018021609634160995,0.0,0.0,-0.6,0.0,0.00023889541625976562,0.00023889541625976562,0.0034301280975341797,0
1.1197144985198975,0.0007928994600661099,0.004020451568067074,-0.0368901863694191,-0.013651271772261072,0.7131533911261762,0.024953477084636688,0.0804973915219307,0.017684396356344223,0.0,0.0,-0.6,0.0,0.00022649765014648438,0.00022649765014648438,0.0032999515533447266,0
1.129828691482544,0.0012525939382612705,0.00384970149025321,-0.04173631966114044,-0.0134885170934589,0.7120668075965179,0.025571303442120552,0.07889560610055923,0.01738237962126732,0.0,0.0,-0.6,0.0,0.00022172927856445312,0.00022172927856445312,0.0031800270080566406,0
1.1396522521972656,0.0017099736724048853,0.0036792149767279625,-0.046573106199502945,-0.013317245331669857,0.7110621122947366,0.02608504891395569,0.0771997720003128,0.017103111371397972,0.0,0.0,-0.6,0.0,0.00023055076599121094,0.00023055076599121094,0.0031239986419677734,0
1.1498332023620605,0.0021641182247549295,0.003508489578962326,-0.05139882117509842,-0.013144872006061164,0.7101287706284723,0.026593923568725586,0.07534514367580414,0.016838017851114273,0.0,0.0,-0.6,0.0,0.00023293495178222656,0.00023293495178222656,0.0030868053436279297,0
1.1597232818603516,0.0026136280503124,0.003337286179885268,-0.056212689727544785,-0.012969209513718825,0.7092554448380314,0.026964588090777397,0.07332854717969894,0.01658552512526512,0.0,0.0,-0.6,0.0,0.00022268295288085938,0.00022268295288085938,0.003185749053955078,0
1.1698729991912842,0.003500803140923381,0.0030009897891432047,-0.06580094993114471,-0.012617912068108661,0.7083154937893991,0.027089301496744156,0.07061877101659775,0.016277935355901718,0.0,0.0,-0.6,0.0,0.0002548694610595703,0.0002548694610595703,0.0033266544342041016,0
1.179701566696167,0.003939680755138397,0.002835493767634034,-0.07057345658540726,-0.012460207239747799,0.707446321745291,0.027089685201644897,0.06803121417760849,0.016004683449864388,0.0,0.0,-0.6,0.0,0.0002067089080810547,0.0002067089080810547,0.0029535293579101562,0
1.1898527145385742,0.004374477546662092,0.002671370515599847,-0.07538150250911713,-0.012285232490723268,0.70664037061134,0.027034414932131767,0.06544685363769531,0.015748094767332077,0.0,0.0,-0.6,0.0,0.0002968311309814453,0.0002968311309814453,0.003189563751220703,0
1.1996815204620361,0.005226749926805496,0.002344014123082161,-0.08493729680776596,-0.011993329852224743,0.7057906055545696,0.02676497958600521,0.062072038650512695,0.01546212937682867,0.0,0.0,-0.6,0.0,0.00018715858459472656,0.00018715858459472656,0.0029191970825195312,0
1.2098193168640137,0.0056448220275342464,0.0021817684173583984,-0.08968419581651688,-0.011853987027482808,0.7050111800465879,0.026463763788342476,0.058963291347026825,0.015210894867777824,0.0,0.0,-0.6,0.0,0.0001995563507080078,0.0001995563507080078,0.003093242645263672,0
1.2196495532989502,0.0060586584731936455,0.0020206933841109276,-0.09440913051366806,-0.011712369918717436,0.7042928571111396,0.02608555555343628,0.056080162525177,0.014984255656599998,0.0,0.0,-0.6,0.0,0.00023317337036132812,0.00023317337036132812,0.003157377243041992,0
1.2297399044036865,0.006467386148869991,0.0018612092826515436,-0.09911174327135086,-0.011574737208004095,0.7036252624824583,0.02568046748638153,0.053356800228357315,0.014775932766497135,0.0,0.0,-0.6,0.0,0.00022292137145996094,0.00022292137145996094,0.003228902816772461,0
1.2396948337554932,0.006870225537568331,0.0017027404392138124,-0.10379160940647125,-0.011431440217109321,0.703,0.025273015722632408,0.05059202015399933,0.014578691683709621,0.0,0.0,-0.6,0.0,0.00024771690368652344,0.00024771690368652344,0.003407716751098633,0
1.249906301498413,0.007653223816305399,0.0013900563353672624,-0.11308395862579346,-0.011128125650849868,0.7023244356243925,0.02458476461470127,0.047019872814416885,0.014334979467093945,0.0,0.0,-0.6,0.0,0.00024247169494628906,0.00024247169494628906,0.0034470558166503906,0
1.259690284729004,0.008033473044633865,0.001237843418493867,-0.11772842705249786,-0.010982301389722705,0.7017077085821241,0.023826468735933304,0.0436721108853817,0.014114364050328732,0.0,0.0,-0.6,0.0,0.0002186298370361328,0.0002186298370361328,0.0031538009643554688,0
1.269897222518921,0.008406895212829113,0.0010886695235967636,-0.12234446406364441,-0.01083514607125874,0.70114312859813,0.023093659430742264,0.04047589749097824,0.013907925225794315,0.0,0.0,-0.6,0.0,0.00024008750915527344,0.00024008750915527344,0.003295421600341797,0
1.2797048091888428,0.009130015037953854,0.0007959350477904081,-0.13148799538612366,-0.010554196176325826,0.7005534413766517,0.022148948162794113,0.036542829126119614,0.013666749931871891,0.0,0.0,-0.6,0.0,0.00023055076599121094,0.00023055076599121094,0.003288745880126953,0
1.2898273468017578,0.009481057524681091,0.0006535026477649808,-0.13601700961589813,-0.010415070925979356,0.7000109764871979,0.0212383009493351,0.03300212696194649,0.013448807410895824,0.0,0.0,-0.6,0.0,0.00026106834411621094,0.00026106834411621094,0.003603219985961914,0
1.2999210357666016,0.009824369102716446,0.0005142533336766064,-0.14051705598831177,-0.01026745262956296,0.6995134457906258,0.020303906872868538,0.029700106009840965,0.013244480825960636,0.0,0.0,-0.6,0.0,0.00024080276489257812,0.00024080276489257812,0.0032911300659179688,0
1.3097102642059326,0.010159228928387165,0.000377974531147629,-0.14498786628246307,-0.010147382423672732,0.6990490441768891,0.01943734660744667,0.026590194553136826,0.013059092685580254,0.0,0.0,-0.6,0.0,0.000225067138671875,0.000225067138671875,0.0034160614013671875,0
1.3197803497314453,0.010806106962263584,0.00011170055950060487,-0.1538403034210205,-0.009889723463838603,0.6985652368466837,0.018423721194267273,0.023034773766994476,0.012838901951909065,0.0,0.0,-0.6,0.0,0.00022363662719726562,0.00022363662719726562,0.0030846595764160156,0
1.3297479152679443,0.011117495596408844,-1.8398146494291723e-05,-0.1582852602005005,-0.009762876396038487,0.6981268304599213,0.017503544688224792,0.01976567506790161,0.012639379128813744,0.0,0.0,-0.6,0.0,0.00023508071899414062,0.00023508071899414062,0.003185272216796875,0
1.3398423194885254,0.011117495596408844,-1.8398146494291723e-05,-0.1582852602005005,-0.009762876396038487,0.6977761277451212,0.016857441514730453,0.017469361424446106,0.01249791868031025,0.0,0.0,-0.6,0.0,0.00022935867309570312,0.00022935867309570312,0.003183126449584961,0
1.349846601486206,0.011715240776538849,-0.0002678613818716258,-0.16706950962543488,-0.009505688188552242,0.6974046181205624,0.01581921987235546,0.014471407048404217,0.012309741228818893,0.0,0.0,-0.6,0.0,0.0002186298370361328,0.0002186298370361328,0.003106832504272461,0
1.3598980903625488,0.011715240776538849,-0.0002678613818716258,-0.16706950962543488,-0.009505688188552242,0.6971074268879949,0.015090548433363438,0.012366639450192451,0.012176159769296646,0.0,0.0,-0.6,0.0,0.00020647048950195312,0.00020647048950195312,0.0031061172485351562,0
1.3697304725646973,0.012549362145364285,-0.0006189402774907649,-0.1799682080745697,-0.009096812814373221,0.6967573344500821,0.013816295191645622,0.008824152871966362,0.011939304880797863,0.0,0.0,-0.6,0.0,0.00023674964904785156,0.00023674964904785156,0.003949642181396484,0
1.3803906440734863,0.012549362145364285,-0.0006189402774907649,-0.1799682080745697,-0.009096812814373221,0.6964774008093387,0.01292217243462801,0.0063374717719852924,0.011770798824727535,0.0,0.0,-0.6,0.0,0.00039267539978027344,0.00039267539978027344,0.004738569259643555,0
1.389721155166626,0.013272488489747047,-0.0008239090675488114,-0.18923047184944153,-0.00883454386526637,0.6961585897294584,0.011665545403957367,0.003519192337989807,0.011558685451745987,0.0,0.0,-0.6,0.0,0.00022912025451660156,0.00022912025451660156,0.003251791000366211,0
1.3999180793762207,0.013272488489747047,-0.0008239090675488114,-0.18923047184944153,-0.00883454386526637,0.6959035745616424,0.01078392006456852,0.0015413410728797317,0.011408086866140366,0.0,0.0,-0.6,0.0,0.00035834312438964844,0.00035834312438964844,0.004290342330932617,0
1.4097871780395508,0.014582314528524876,-0.0010799806332215667,-0.20406027138233185,-0.008481066983298379,0.6955309547717172,0.009146973490715027,-0.0010075513273477554,0.011174285784363747,0.0,0.0,-0.6,0.0,0.0002605915069580078,0.0002605915069580078,0.0036716461181640625,0
1.4200708866119385,0.014992261305451393,-0.001157686347141862,-0.20889908075332642,-0.008366678735081755,0.6951800110666767,0.0077815367840230465,-0.0031398532446473837,0.01096661202609539,0.0,0.0,-0.6,0.0,0.0003063678741455078,0.0003063678741455078,0.0036263465881347656,0
1.4298572540283203,0.01539053488522768,-0.0012329845922067761,-0.21368132531642914,-0.008267162661532212,0.6948457004349964,0.006593602243810892,-0.004833504091948271,0.010782849974930286,0.0,0.0,-0.6,0.0,0.0002524852752685547,0.0002524852752685547,0.003442049026489258,0
1.4398384094238281,0.01539053488522768,-0.0012329845922067761,-0.21368132531642914,-0.008267162661532212,0.6945781899851016,0.005759969353675842,-0.006022276356816292,0.010653014294803143,0.0,0.0,-0.6,0.0,0.0002467632293701172,0.0002467632293701172,0.0035638809204101562,0
1.449904441833496,0.016508912667632103,-0.0014407201670110226,-0.22769130766391754,-0.00795389292074177,0.6942314681501861,0.004413408227264881,-0.007962438277900219,0.010446452535688877,0.0,0.0,-0.6,0.0,0.0003790855407714844,0.0003790855407714844,0.005590915679931641,0
1.463775873184204,0.016508912667632103,-0.0014407201670110226,-0.22769130766391754,-0.00795389292074177,0.6939540682558406,0.0034683835692703724,-0.009324385784566402,0.010300294496119022,0.0,0.0,-0.6,0.0,0.0003609657287597656,0.0003609657287597656,0.004857301712036133,0
1.4697902202606201,0.017183959484100342,-0.0015607032692059875,-0.23674893379211426,-0.007726324860115641,0.6936642473363658,0.0021996283903717995,-0.010832639411091805,0.010111835785210133,0.0,0.0,-0.6,0.0,0.00023627281188964844,0.00023627281188964844,0.0041234493255615234,0
1.4797775745391846,0.017502987757325172,-0.0016142255626618862,-0.24122744798660278,-0.007613619384285788,0.6933990956637145,0.0010717754485085607,-0.012162376195192337,0.009936496615409851,0.0,0.0,-0.6,0.0,0.00025916099548339844,0.00025916099548339844,0.0034322738647460938,0
1.4899218082427979,0.018098289147019386,-0.00170708482619375,-0.25001901388168335,-0.007408495468842044,0.6931214834437408,-0.0004374824929982424,-0.013784436509013176,0.00973497238010168,0.0,0.0,-0.6,0.0,0.0002422332763671875,0.0002422332763671875,0.003388643264770508,0
1.4999725818634033,0.018375124782323837,-0.001745878835208714,-0.2543317377567291,-0.007320332919388851,0.6928755419358071,-0.0017506669973954558,-0.015207529999315739,0.009558952413499355,0.0,0.0,-0.6,0.0,0.00025343894958496094,0.00025343894958496094,0.0033240318298339844,0
1.5098130702972412,0.018636429682374,-0.0017811870202422142,-0.2585890591144562,-0.007209826438874834,0.6926534157499102,-0.0028324404265731573,-0.016549188643693924,0.009392906911671162,0.0,0.0,-0.6,0.0,0.00025963783264160156,0.00025963783264160156,0.0034623146057128906,0
1.5200533866882324,0.019117653369903564,-0.0018417948158457875,-0.26694002747535706,-0.00703724839630665,0.6924345793186968,-0.00392431765794754,-0.017970571294426918,0.009209924377501011,0.0,0.0,-0.6,0.0,0.0002391338348388672,0.0002391338348388672,0.0034372806549072266,0
1.5297832489013672,0.019340461120009422,-0.0018666484393179417,-0.27103501558303833,-0.006946780171611597,0.692238955429484,-0.0049083298072218895,-0.019081339240074158,0.00904583465307951,0.0,0.0,-0.6,0.0,0.00024390220642089844,0.00024390220642089844,0.0032978057861328125,0
1.53977370262146,0.019340461120009422,-0.0018666484393179417,-0.27103501558303833,-0.006946780171611597,0.692082460984966,-0.005598137155175209,-0.019860148429870605,0.008930311538279057,0.0,0.0,-0.6,0.0,0.0002512931823730469,0.0002512931823730469,0.0032889842987060547,0
1.5497004985809326,0.01974974200129509,-0.0019064078805968165,-0.27911409735679626,-0.00681615202006211,0.6919265275263862,-0.006269803736358881,-0.020819412544369698,0.008798926137387753,0.0,0.0,-0.6,0.0,0.00029206275939941406,0.00029206275939941406,0.0035042762756347656,0
1.5601987838745117,0.019934380427002907,-0.0019220425747334957,-0.2830965518951416,-0.006724861409403375,0.6917909683117129,-0.0069382707588374615,-0.021662838757038116,0.008670981042087078,0.0,0.0,-0.6,0.0,0.0004062652587890625,0.0004062652587890625,0.008152008056640625,0
1.569793462753296,0.020268414169549942,-0.0019421527395024896,-0.2908972203731537,-0.006554297601795815,0.6916664385964584,-0.007644811179488897,-0.022426621988415718,0.008515567518770695,0.0,0.0,-0.6,0.0,0.0002617835998535156,0.0002617835998535156,0.003869771957397461,0
1.579862117767334,0.02041781321167946,-0.0019478092435747385,-0.29471707344055176,-0.006446275463753751,0.691559299736918,-0.008202488534152508,-0.023038484156131744,0.008365480229258537,0.0,0.0,-0.6,0.0,0.0002772808074951172,0.0002772808074951172,0.0034160614013671875,0
1.5897448062896729,0.020555248484015465,-0.0019505188101902604,-0.2984829545021057,-0.006370986181754416,0.6914744942194916,-0.008772374130785465,-0.023529155179858208,0.008230511099100113,0.0,0.0,-0.6,0.0,0.00024628639221191406,0.00024628639221191406,0.003353595733642578,0
1.6005761623382568,0.020799456164240837,-0.0019423593766987324,-0.3058517575263977,-0.006236590016104241,0.6914087123604339,-0.009571215137839317,-0.02388264797627926,0.00808214396238327,0.0,0.0,-0.6,0.0,0.0004515647888183594,0.0004515647888183594,0.0067653656005859375,0
1.6098835468292236,0.020906493067741394,-0.0019314378732815385,-0.3094578981399536,-0.006164669705328815,0.6913521261107473,-0.010288387537002563,-0.024177629500627518,0.007949667051434517,0.0,0.0,-0.6,0.0,0.0002529621124267578,0.0002529621124267578,0.003268003463745117,0
1.6200909614562988,0.02100164070725441,-0.0019167959690093994,-0.31303733587265015,-0.006086393829100111,0.6913089235564073,-0.010916763916611671,-0.024461856111884117,0.007825962267816067,0.0,0.0,-0.6,0.0,0.00026535987854003906,0.00026535987854003906,0.0037238597869873047,0
1.6297855377197266,0.021086053922772408,-0.001896995585411787,-0.3165642023086548,-0.006004928801731775,0.6912797782706189,-0.011575352400541306,-0.024689931422472,0.007706471253186464,0.0,0.0,-0.6,0.0,0.0002853870391845703,0.0002853870391845703,0.0034377574920654297,0
1.6398494243621826,0.021086053922772408,-0.001896995585411787,-0.3165642023086548,-0.006004928801731775,0.6912565165608432,-0.01203646045178175,-0.024849653244018555,0.007622736971825361,0.0,0.0,-0.6,0.0,0.0002429485321044922,0.0002429485321044922,0.003177642822265625,0
1.6499290466308594,0.021280556917190552,-0.0018160439794883132,-0.3268243968486786,-0.0057882981202132784,0.6912790673965791,-0.012342924252152443,-0.025065293535590172,0.0074814362451434135,0.0,0.0,-0.6,0.0,0.0002262592315673828,0.0002262592315673828,0.0035326480865478516,0
1.6597774028778076,0.021280556917190552,-0.0018160439794883132,-0.3268243968486786,-0.0057882981202132784,0.6912971155008718,-0.012557398527860641,-0.025216231122612953,0.00738248648121953,0.0,0.0,-0.6,0.0,0.0002117156982421875,0.0002117156982421875,0.0033540725708007812,0
1.6698687076568604,0.02136857807636261,-0.0017548010218888521,-0.3333987593650818,-0.005618510464696675,0.6913384231793627,-0.012698918581008911,-0.025121476501226425,0.007249471265822649,0.0,0.0,-0.6,0.0,0.00043892860412597656,0.00043892860412597656,0.0041463375091552734,0
1.6799101829528809,0.02136857807636261,-0.0017548010218888521,-0.3333987593650818,-0.005618510464696675,0.6913714756674011,-0.012797954492270947,-0.02505517564713955,0.007156368810683489,0.0,0.0,-0.6,0.0,0.00028014183044433594,0.00028014183044433594,0.003881216049194336,0
1.6898274421691895,0.02144731767475605,-0.001643683877773583,-0.3429326117038727,-0.005431302119277865,0.6914409327296637,-0.01293027214705944,-0.02459610626101494,0.007020439486950636,0.0,0.0,-0.6,0.0,0.00023055076599121094,0.00023055076599121094,0.00342559814453125,0
1.7001149654388428,0.02144731767475605,-0.001643683877773583,-0.3429326117038727,-0.005431302119277865,0.6914965255767078,-0.013022867031395435,-0.02427494339644909,0.006925323978066444,0.0,0.0,-0.6,0.0,0.0002884864807128906,0.0002884864807128906,0.003798961639404297,0
1.7097136974334717,0.021463770419359207,-0.00155825971160084,-0.34910544753074646,-0.005263384228237657,0.6915704327474593,-0.01305157970637083,-0.023782411590218544,0.0067960643209517,0.0,0.0,-0.6,0.0,0.00020456314086914062,0.00020456314086914062,0.003021717071533203,0
1.7198460102081299,0.021463770419359207,-0.00155825971160084,-0.34910544753074646,-0.005263384228237657,0.6916295693062506,-0.013071690686047077,-0.023437846451997757,0.006705589592456818,0.0,0.0,-0.6,0.0,0.0002562999725341797,0.0002562999725341797,0.003382444381713867,0
1.7299067974090576,0.02143247239291668,-0.0014116951497271657,-0.35799524188041687,-0.005008919855855107,0.6917407246062311,-0.013153791427612305,-0.022865088656544685,0.006545652635395527,0.0,0.0,-0.6,0.0,0.0008389949798583984,0.0008389949798583984,0.004964351654052734,0
1.7398099899291992,0.02143247239291668,-0.0014116951497271657,-0.35799524188041687,-0.005008919855855107,0.6918296455046375,-0.013211245648562908,-0.022464517503976822,0.00643372256308794,0.0,0.0,-0.6,0.0,0.0002346038818359375,0.0002346038818359375,0.0035152435302734375,0
1.7499582767486572,0.021374687552452087,-0.0012930030934512615,-0.3636704981327057,-0.0048403587771362454,0.6919592397970997,-0.013266128487884998,-0.021961357444524765,0.006291722878813744,0.0,0.0,-0.6,0.0,0.00036835670471191406,0.00036835670471191406,0.004188060760498047,0
1.7597846984863281,0.021374687552452087,-0.0012930030934512615,-0.3636704981327057,-0.0048403587771362454,0.6920628920736029,-0.013304533436894417,-0.021609511226415634,0.006192337721586227,0.0,0.0,-0.6,0.0,0.0002570152282714844,0.0002570152282714844,0.006902217864990234,0
1.7697136402130127,0.021244104951620102,-0.0010966627160087228,-0.37192502617836,-0.004681271679672334,0.6922266484409622,-0.013175184838473797,-0.020756976678967476,0.0060649351216852665,0.0,0.0,-0.6,0.0,0.00025582313537597656,0.00025582313537597656,0.003246784210205078,0
1.7801599502563477,0.021244104951620102,-0.0010966627160087228,-0.37192502617836,-0.004681271679672334,0.6923576370553893,-0.013084798119962215,-0.020160973072052002,0.005975681822746992,0.0,0.0,-0.6,0.0,0.0002486705780029297,0.0002486705780029297,0.003557443618774414,0
1.78981351852417,0.02173147350549698,-0.001367106568068266,-0.37826383113861084,-0.004516958042620776,0.6924768924075957,-0.01264596451073885,-0.01888103410601616,0.005857063457369804,0.0,0.0,-0.6,0.0,0.00020599365234375,0.00020599365234375,0.0029845237731933594,0
1.8001093864440918,0.02173147350549698,-0.001367106568068266,-0.37826383113861084,-0.004516958042620776,0.6925723153126155,-0.01233912818133831,-0.017985906451940536,0.005773687735199928,0.0,0.0,-0.6,0.0,0.0003917217254638672,0.0003917217254638672,0.006541013717651367,0
1.809828281402588,0.02325262501835823,-0.002330201677978039,-0.3888412415981293,-0.0043334744446732396,0.6926144239161939,-0.011065625585615635,-0.01558096706867218,0.005660153925418854,0.0,0.0,-0.6,0.0,0.0003604888916015625,0.0003604888916015625,0.004290580749511719,0
1.8198063373565674,0.02325262501835823,-0.002330201677978039,-0.3888412415981293,-0.0043334744446732396,0.6926482511177325,-0.01017457339912653,-0.01389803271740675,0.005578845739364624,0.0,0.0,-0.6,0.0,0.00025010108947753906,0.00025010108947753906,0.0032966136932373047,0
1.8299846649169922,0.0241868793964386,-0.0029204348102211952,-0.3955520689487457,-0.004184347716145182,0.6926678055780997,-0.008994925767183304,-0.011437598615884781,0.005472700577229261,0.0,0.0,-0.6,0.0,0.00026726722717285156,0.00026726722717285156,0.0034766197204589844,0
1.8396875858306885,0.0241868793964386,-0.0029204348102211952,-0.3955520689487457,-0.004184347716145182,0.6926835355297851,-0.00816939864307642,-0.009715527296066284,0.005396662745624781,0.0,0.0,-0.6,0.0,0.00020503997802734375,0.00020503997802734375,0.0031218528747558594,0
1.8497703075408936,0.02547704055905342,-0.0037352857179939747,-0.405225545167923,-0.0040338706896402956,0.6927001718808947,-0.0065611195750534534,-0.006938843056559563,0.005295285023748875,0.0,0.0,-0.6,0.0,0.0002541542053222656,0.0002541542053222656,0.003301382064819336,0
1.8600316047668457,0.02547704055905342,-0.0037352857179939747,-0.405225545167923,-0.0040338706896402956,0.6927136147436853,-0.005435580853372812,-0.004995370749384165,0.005221654195338488,0.0,0.0,-0.6,0.0,0.00033593177795410156,0.00033593177795410156,0.008109807968139648,0
1.86983323097229,0.026262152940034866,-0.004231760278344154,-0.411356657743454,-0.0038911244286543643,0.6927192914266689,-0.0042077358812093735,-0.0025289335753768682,0.005119610577821732,0.0,0.0,-0.6,0.0,0.0002346038818359375,0.0002346038818359375,0.003274202346801758,0
1.8800761699676514,0.026262152940034866,-0.004231760278344154,-0.411356657743454,-0.0038911244286543643,0.6927239825437351,-0.003348380094394088,-0.0008024639682844281,0.005046371836215258,0.0,0.0,-0.6,0.0,0.0002789497375488281,0.0002789497375488281,0.0034952163696289062,0
1.8899426460266113,0.027344830334186554,-0.004909740760922432,-0.4200967848300934,-0.0037337267084653243,0.6927426678941913,-0.001816544565372169,0.0021224834490567446,0.004940683487802744,0.0,0.0,-0.6,0.0,0.0002684593200683594,0.0002684593200683594,0.003543376922607422,0
1.8999314308166504,0.027344830334186554,-0.004909740760922432,-0.4200967848300934,-0.0037337267084653243,0.6927578050703759,-0.0007445394294336438,0.004169699735939503,0.004864027723670006,0.0,0.0,-0.6,0.0,0.00021886825561523438,0.00021886825561523438,0.0031142234802246094,0
1.9098162651062012,0.028012171387672424,-0.005323304794728756,-0.4256632328033447,-0.0036436746039460815,0.6927878026306913,0.0003147077513858676,0.006558722350746393,0.004777357913553715,0.0,0.0,-0.6,0.0,0.00022101402282714844,0.00022101402282714844,0.003278493881225586,0
1.9199421405792236,0.028012171387672424,-0.005323304794728756,-0.4256632328033447,-0.0036436746039460815,0.6928119259950622,0.0010559227084740996,0.008230675011873245,0.004715178161859512,0.0,0.0,-0.6,0.0,0.00023174285888671875,0.00023174285888671875,0.003306150436401367,0
1.9298620223999023,0.02892809361219406,-0.005881173070520163,-0.43363142013549805,-0.0035439473592002884,0.6928662402952972,0.0022448780946433544,0.010606830008327961,0.004634477198123932,0.0,0.0,-0.6,0.0,0.0003211498260498047,0.0003211498260498047,0.0040361881256103516,0
1.9399309158325195,0.02892809361219406,-0.005881173070520163,-0.43363142013549805,-0.0035439473592002884,0.6929097915273843,0.003076711669564247,0.012269464321434498,0.004576302133500576,0.0,0.0,-0.6,0.0,0.0002567768096923828,0.0002567768096923828,0.0033659934997558594,0
1.9497559070587158,0.02949346788227558,-0.006226042285561562,-0.4386669099330902,-0.0034562037947342113,0.6929690252462576,0.004159688483923674,0.01413745153695345,0.00450103497132659,0.0,0.0,-0.6,0.0,0.00025177001953125,0.00025177001953125,0.003271818161010742,0
1.9598803520202637,0.02949346788227558,-0.006226042285561562,-0.4386669099330902,-0.0034562037947342113,0.693016472086173,0.0049173603765666485,0.015444464050233364,0.004447143990546465,0.0,0.0,-0.6,0.0,0.0003256797790527344,0.0003256797790527344,0.007645368576049805,0
1.969761848449707,0.030272798612713814,-0.0067083272151649,-0.4458233118057251,-0.0033187278949699016,0.6931027282136911,0.006119974888861179,0.017041275277733803,0.0043548475950956345,0.0,0.0,-0.6,0.0,0.00022101402282714844,0.00022101402282714844,0.003384828567504883,0
1.9800291061401367,0.030272798612713814,-0.0067083272151649,-0.4458233118057251,-0.0033187278949699016,0.693171797279757,0.006961170583963394,0.018158327788114548,0.0042891004122793674,0.0,0.0,-0.6,0.0,0.0002987384796142578,0.0002987384796142578,0.0033597946166992188,0
1.9898192882537842,0.030741620808839798,-0.00700571620836854,-0.45043671131134033,-0.0032864495159402487,0.6932669790177831,0.007863616570830345,0.019231434911489487,0.004228920675814152,0.0,0.0,-0.6,0.0,0.00021386146545410156,0.00021386146545410156,0.0030777454376220703,0
1.9998486042022705,0.030741620808839798,-0.00700571620836854,-0.45043671131134033,-0.0032864495159402487,0.6933431240642348,0.008494826033711433,0.019982067868113518,0.004186221864074469,0.0,0.0,-0.6,0.0,0.00023818016052246094,0.00023818016052246094,0.0033788681030273438,0
2.009816884994507,0.03136837109923363,-0.007407652214169502,-0.4569637179374695,-0.0031450937829823862,0.6934758975545507,0.009189371950924397,0.02077905461192131,0.004101215861737728,0.0,0.0,-0.6,0.0,0.0002186298370361328,0.0002186298370361328,0.0031561851501464844,0
2.019991874694824,0.03136837109923363,-0.007407652214169502,-0.4569637179374695,-0.0031450937829823862,0.693582108228254,0.009675015695393085,0.021336380392313004,0.004041386768221855,0.0,0.0,-0.6,0.0,0.0002605915069580078,0.0002605915069580078,0.003442525863647461,0
2.02980375289917,0.03174286708235741,-0.007652177009731531,-0.461062490940094,-0.0030999244208022854,0.6937193301161311,0.010255071334540844,0.02181781828403473,0.0039804838597774506,0.0,0.0,-0.6,0.0,0.0002841949462890625,0.0002841949462890625,0.003796100616455078,0
2.0398707389831543,0.03174286708235741,-0.007652177009731531,-0.461062490940094,-0.0030999244208022854,0.6938291299139885,0.010660656727850437,0.022154472768306732,0.003937690053135157,0.0,0.0,-0.6,0.0,0.00027108192443847656,0.00027108192443847656,0.0037152767181396484,0
2.050079107284546,0.03223949670791626,-0.008000114001333714,-0.46689721941947937,-0.002976519413976649,0.6940081469985052,0.011495668441057205,0.0221815574914217,0.0038568435702472925,0.0,0.0,-0.6,0.0,0.0002923011779785156,0.0002923011779785156,0.0036809444427490234,0
2.0597217082977295,0.03223949670791626,-0.008000114001333714,-0.46689721941947937,-0.002976519413976649,0.6941513552214086,0.012079347856342793,0.022200513631105423,0.003800244303420186,0.0,0.0,-0.6,0.0,0.00022339820861816406,0.00022339820861816406,0.003403186798095703,0
2.069866180419922,0.0325283482670784,-0.008218970149755478,-0.4706188142299652,-0.00286398443668844,0.6943211724485254,0.012559142895042896,0.022051576524972916,0.0037175994366407394,0.0,0.0,-0.6,0.0,0.0002613067626953125,0.0002613067626953125,0.003432035446166992,0
2.08003306388855,0.0325283482670784,-0.008218970149755478,-0.4706188142299652,-0.00286398443668844,0.6944569686269987,0.012894552201032639,0.021947475150227547,0.0036597936414182186,0.0,0.0,-0.6,0.0,0.0002415180206298828,0.0002415180206298828,0.004591226577758789,0
2.090095043182373,0.032906681299209595,-0.00852371659129858,-0.47585001587867737,-0.0027370115638132245,0.6946573554054603,0.013273673132061958,0.02140134759247303,0.0035707284696400166,0.0,0.0,-0.6,0.0,0.0004527568817138672,0.0004527568817138672,0.004748344421386719,0
2.0999555587768555,0.032906681299209595,-0.00852371659129858,-0.47585001587867737,-0.0027370115638132245,0.6948176677704139,0.013538655824959278,0.021019678562879562,0.003508506342768669,0.0,0.0,-0.6,0.0,0.00029087066650390625,0.00029087066650390625,0.0037527084350585938,0
2.1097254753112793,0.03312340006232262,-0.008712789043784142,-0.4791114628314972,-0.0026540575531940683,0.6950120675184749,0.013814520090818405,0.020399844273924828,0.0034336368553340435,0.0,0.0,-0.6,0.0,0.00021219253540039062,0.00021219253540039062,0.003171205520629883,0
2.1200051307678223,0.03312340006232262,-0.008712789043784142,-0.4791114628314972,-0.0026540575531940683,0.6951675530980876,0.014007345773279667,0.01996663771569729,0.0033813288901001215,0.0,0.0,-0.6,0.0,0.00033593177795410156,0.00033593177795410156,0.003662109375,0
2.1298470497131348,0.03340102732181549,-0.008977322839200497,-0.483752965927124,-0.002548136924527522,0.6953918845449707,0.014240182004868984,0.019213981926441193,0.003304535523056984,0.0,0.0,-0.6,0.0,0.00026488304138183594,0.00026488304138183594,0.003690004348754883,0
2.139785051345825,0.03340102732181549,-0.008977322839200497,-0.483752965927124,-0.002548136924527522,0.6955713355821714,0.014402900822460651,0.018688064068555832,0.0032508817967027426,0.0,0.0,-0.6,0.0,0.0002224445343017578,0.0002224445343017578,0.003095865249633789,0
2.1497578620910645,0.0335596464574337,-0.009138431400060654,-0.4866562783718109,-0.0024969516693397506,0.6957887203900291,0.014215984381735325,0.018001357093453407,0.003196044359356165,0.0,0.0,-0.6,0.0,0.0002830028533935547,0.0002830028533935547,0.0033109188079833984,0
2.1596970558166504,0.0335596464574337,-0.009138431400060654,-0.4866562783718109,-0.0024969516693397506,0.6959625854900467,0.014085381291806698,0.017521483823657036,0.00315757654607296,0.0,0.0,-0.6,0.0,0.000202178955078125,0.000202178955078125,0.0030531883239746094,0
2.1697189807891846,0.033745236694812775,-0.009355784393846989,-0.490696519613266,-0.0024132807227437536,0.6962174247653714,0.013672619126737118,0.016341309994459152,0.0031026876531541348,0.0,0.0,-0.6,0.0,0.00023293495178222656,0.00023293495178222656,0.0032854080200195312,0
2.1804115772247314,0.033745236694812775,-0.009355784393846989,-0.490696519613266,-0.0024132807227437536,0.6964212531694518,0.013384290039539337,0.015516846440732479,0.003063963958993554,0.0,0.0,-0.6,0.0,0.00044465065002441406,0.00044465065002441406,0.004401206970214844,0
2.189854383468628,0.03433923423290253,-0.009715401567518711,-0.49437272548675537,-0.0023387548450526305,0.6966283245654776,0.013034979812800884,0.014761902391910553,0.0030094520188868046,0.0,0.0,-0.6,0.0,0.0002148151397705078,0.0002148151397705078,0.003031015396118164,0
2.1999425888061523,0.03433923423290253,-0.009715401567518711,-0.49437272548675537,-0.0023387548450526305,0.6967939664681203,0.012790876440703869,0.014234299771487713,0.002971130423247814,0.0,0.0,-0.6,0.0,0.00025773048400878906,0.00025773048400878906,0.0033965110778808594,0
2.2099387645721436,0.03586945682764053,-0.01054488867521286,-0.5013260841369629,-0.00224791855727532,0.6969220084173858,0.012638467364013195,0.01382184773683548,0.0029091297183185816,0.0,0.0,-0.6,0.0,0.00030040740966796875,0.00030040740966796875,0.0036602020263671875,0
2.21994686126709,0.03634311258792877,-0.010804182849824429,-0.5035126209259033,-0.002209546362153079,0.6970212120765671,0.012487482279539108,0.013551088981330395,0.0028510296251624823,0.0,0.0,-0.6,0.0,0.00021409988403320312,0.00021409988403320312,0.0030052661895751953,0
2.2299575805664062,0.036797646433115005,-0.011053395457565784,-0.5056372880935669,-0.00216160502717151,0.6970979786073981,0.012278345413506031,0.013371279463171959,0.0027924312744289637,0.0,0.0,-0.6,0.0,0.00031280517578125,0.00031280517578125,0.003907918930053711,0
2.2396552562713623,0.036797646433115005,-0.011053395457565784,-0.5056372880935669,-0.00216160502717151,0.6971593708286945,0.012132043018937111,0.013245483860373497,0.0027513892855495214,0.0,0.0,-0.6,0.0,0.00020313262939453125,0.00020313262939453125,0.0031435489654541016,0
2.2499077320098877,0.038068387657403946,-0.011744759045541286,-0.5116516947746277,-0.0020707798282732295,0.6972086066394416,0.01158182043582201,0.01314353197813034,0.0026894379407167435,0.0,0.0,-0.6,0.0,0.00024008750915527344,0.00024008750915527344,0.0031163692474365234,0
2.2598917484283447,0.038068387657403946,-0.011744759045541286,-0.5116516947746277,-0.0020707798282732295,0.6972480009382275,0.011196818202733994,0.0130721814930439,0.0026460380759090185,0.0,0.0,-0.6,0.0,0.00029778480529785156,0.00029778480529785156,0.0035829544067382812,0
2.2698450088500977,0.03883960470557213,-0.012158527038991451,-0.5153926014900208,-0.002020817958900933,0.697293664530203,0.010651739314198494,0.012989201582968235,0.002597434213384986,0.0,0.0,-0.6,0.0,0.0002167224884033203,0.0002167224884033203,0.003045320510864258,0
2.2801361083984375,0.03883960470557213,-0.012158527038991451,-0.5153926014900208,-0.002020817958900933,0.6973301935208523,0.010270322673022747,0.012931125238537788,0.0025633838959038258,0.0,0.0,-0.6,0.0,0.00043010711669921875,0.00043010711669921875,0.0036971569061279297,0
2.2898597717285156,0.03988762944936752,-0.012716575525701046,-0.5206153392791748,-0.0019064317905940033,0.6973823972850166,0.00969938188791275,0.012708337977528572,0.0024975433479994535,0.0,0.0,-0.6,0.0,0.0002415180206298828,0.0002415180206298828,0.003686189651489258,0
2.3000504970550537,0.03988762944936752,-0.012716575525701046,-0.5206153392791748,-0.0019064317905940033,0.6974241735111871,0.009299893863499165,0.01255243644118309,0.0024513783864676952,0.0,0.0,-0.6,0.0,0.0002739429473876953,0.0002739429473876953,0.003616809844970703,0
2.3098340034484863,0.040515195578336716,-0.013050875626504421,-0.523833692073822,-0.0018505081810669332,0.6974774683337455,0.00871909037232399,0.012350769713521004,0.002398985205218196,0.0,0.0,-0.6,0.0,0.00022983551025390625,0.00022983551025390625,0.003223896026611328,0
2.3197524547576904,0.040515195578336716,-0.013050875626504421,-0.523833692073822,-0.0018505081810669332,0.6975201408115033,0.008312703110277653,0.012209649197757244,0.002362239407375455,0.0,0.0,-0.6,0.0,0.00022554397583007812,0.00022554397583007812,0.0032300949096679688,0
2.3298017978668213,0.04136331006884575,-0.013499788008630276,-0.5282877683639526,-0.001817307982883744,0.6975891016055824,0.0078115821816027164,0.011792995035648346,0.0023251180537045,0.0,0.0,-0.6,0.0,0.00027108192443847656,0.00027108192443847656,0.0035123825073242188,0
2.3399224281311035,0.04136331006884575,-0.013499788008630276,-0.5282877683639526,-0.001817307982883744,0.6976442659481732,0.0074609932489693165,0.011501491069793701,0.002299007261171937,0.0,0.0,-0.6,0.0,0.00023436546325683594,0.00023436546325683594,0.0032494068145751953,0
2.3497955799102783,0.04186343774199486,-0.013770103454589844,-0.5310781598091125,-0.0017946650957725698,0.6977182303294817,0.006974564399570227,0.011096806265413761,0.002273212419822812,0.0,0.0,-0.6,0.0,0.00023698806762695312,0.00023698806762695312,0.0031969547271728516,0
2.3598413467407227,0.04186343774199486,-0.013770103454589844,-0.5310781598091125,-0.0017946650957725698,0.6977774203999508,0.006634266581386328,0.010813687928020954,0.0022550374269485474,0.0,0.0,-0.6,0.0,0.00022339820861816406,0.00022339820861816406,0.003381013870239258,0
2.3697636127471924,0.042317017912864685,-0.01401575282216072,-0.5336804986000061,-0.0017495339413825277,0.6978628484896386,0.006181038916110992,0.0103907510638237,0.0022264199797064066,0.0,0.0,-0.6,0.0,0.0002460479736328125,0.0002460479736328125,0.0033729076385498047,0
2.3800532817840576,0.042317017912864685,-0.01401575282216072,-0.5336804986000061,-0.0017495339413825277,0.6979312313727293,0.005863998085260391,0.01009488943964243,0.0022062722127884626,0.0,0.0,-0.6,0.0,0.00024700164794921875,0.00024700164794921875,0.0033931732177734375,0
2.3899121284484863,0.042899105697870255,-0.014338906854391098,-0.5372371077537537,-0.001692581155537998,0.6980558799357349,0.005267756059765816,0.009156294167041779,0.0021739453077316284,0.0,0.0,-0.6,0.0,0.0002608299255371094,0.0002608299255371094,0.003397226333618164,0
2.399944305419922,0.042899105697870255,-0.014338906854391098,-0.5372371077537537,-0.001692581155537998,0.6981556082619479,0.004850807134062052,0.008499916642904282,0.0021509791258722544,0.0,0.0,-0.6,0.0,0.0002391338348388672,0.0002391338348388672,0.0034911632537841797,0
2.4097142219543457,0.043361153453588486,-0.014610173180699348,-0.5404475331306458,-0.0015963962907830634,0.6983017130133192,0.0041646817699074745,0.007177671417593956,0.0021022355649620295,0.0,0.0,-0.6,0.0,0.00023317337036132812,0.00023317337036132812,0.0032799243927001953,0
2.419943332672119,0.043361153453588486,-0.014610173180699348,-0.5404475331306458,-0.0015963962907830634,0.6984186323602425,0.0036849703174084425,0.006253148894757032,0.002067568711936474,0.0,0.0,-0.6,0.0,0.00039315223693847656,0.00039315223693847656,0.0049762725830078125,0
2.4297311305999756,0.043608713895082474,-0.014760882593691349,-0.5424362421035767,-0.0015604620063391923,0.6985650020505532,0.003021955257281661,0.005160883069038391,0.0020314769353717566,0.0,0.0,-0.6,0.0,0.0002703666687011719,0.0002703666687011719,0.003731966018676758,0
2.440509080886841,0.043608713895082474,-0.014760882593691349,-0.5424362421035767,-0.0015604620063391923,0.6986821176162641,0.0025583948008716106,0.004397167824208736,0.002005777321755886,0.0,0.0,-0.6,0.0,0.00029397010803222656,0.00029397010803222656,0.00478816032409668,0
2.449741840362549,0.04388652369379997,-0.014944733120501041,-0.5451111197471619,-0.001531108608618806,0.6988529276406265,0.0018621203489601612,0.0031253951601684093,0.0019791238009929657,0.0,0.0,-0.6,0.0,0.0002760887145996094,0.0002760887145996094,0.004057884216308594,0
2.459862470626831,0.04388652369379997,-0.014944733120501041,-0.5451111197471619,-0.001531108608618806,0.6989895571908309,0.001375395804643631,0.0022363460157066584,0.001959934365004301,0.0,0.0,-0.6,0.0,0.00030541419982910156,0.00030541419982910156,0.004691362380981445,0
2.4699699878692627,0.044019751250743866,-0.015039905905723572,-0.5466994047164917,-0.00149331303804685,0.6991544359508992,0.0007469042902812362,0.0012106253998354077,0.0019333247328177094,0.0,0.0,-0.6,0.0,0.0002701282501220703,0.0002701282501220703,0.003300189971923828,0
2.479999542236328,0.044019751250743866,-0.015039905905723572,-0.5466994047164917,-0.00149331303804685,0.6992863222900789,0.0003075418353546411,0.000493545550853014,0.0019143112003803253,0.0,0.0,-0.6,0.0,0.0002779960632324219,0.0002779960632324219,0.0037200450897216797,0
2.4898693561553955,0.0441327728331089,-0.015145083889365196,-0.5488759875297546,-0.0014373456055188267,0.6994813162294664,-0.00025571638252586126,-0.0011751815909519792,0.0018826297018676996,0.0,0.0,-0.6,0.0,0.00021910667419433594,0.00021910667419433594,0.003059864044189453,0
2.499872922897339,0.0441327728331089,-0.015145083889365196,-0.5488759875297546,-0.0014373456055188267,0.6996373005932127,-0.0006493714754469693,-0.00234150979667902,0.001859887968748808,0.0,0.0,-0.6,0.0,0.00024819374084472656,0.00024819374084472656,0.0033974647521972656,0
2.5097572803497314,0.04414955526590347,-0.015191877260804176,-0.5501667261123657,-0.0013963076622536435,0.6998211909545783,-0.001385053270496428,-0.0037121111527085304,0.001829276094213128,0.0,0.0,-0.6,0.0,0.00021266937255859375,0.00021266937255859375,0.0031948089599609375,0
2.5199403762817383,0.04414955526590347,-0.015191877260804176,-0.5501667261123657,-0.0013963076622536435,0.6999683196852234,-0.001899268594570458,-0.004670158959925175,0.0018072450766339898,0.0,0.0,-0.6,0.0,0.0002422332763671875,0.0002422332763671875,0.0032355785369873047,0
2.52986478805542,0.04410455375909805,-0.015219912864267826,-0.5518446564674377,-0.0013610237023692214,0.7001789643573493,-0.0025490077678114176,-0.006111403927206993,0.0017793502192944288,0.0,0.0,-0.6,0.0,0.00025653839111328125,0.00025653839111328125,0.0034613609313964844,0
2.5398221015930176,0.04410455375909805,-0.015219912864267826,-0.5518446564674377,-0.0013610237023692214,0.7003474636056517,-0.0030030570924282074,-0.007118615787476301,0.0017592645017430186,0.0,0.0,-0.6,0.0,0.0002307891845703125,0.0002307891845703125,0.0031578540802001953,0
2.5497946739196777,0.04402473568916321,-0.015216019935905933,-0.5527934432029724,-0.0012870965434183396,0.7005514505639222,-0.0035737031139433384,-0.008360275998711586,0.0017173807136714458,0.0,0.0,-0.6,0.0,0.0002415180206298828,0.0002415180206298828,0.003345489501953125,0
2.559788942337036,0.04402473568916321,-0.015216019935905933,-0.5527934432029724,-0.0012870965434183396,0.7007146417419878,-0.003972495440393686,-0.009228057228028774,0.0016876397421583533,0.0,0.0,-0.6,0.0,0.00021338462829589844,0.00021338462829589844,0.0033769607543945312,0
2.5698444843292236,0.04383355751633644,-0.015171671286225319,-0.5540488958358765,-0.0012477878978996374,0.7009476028430325,-0.004651522263884544,-0.01053689792752266,0.0016512274742126465,0.0,0.0,-0.6,0.0,0.000225067138671875,0.000225067138671875,0.0032279491424560547,0
2.5803427696228027,0.04383355751633644,-0.015171671286225319,-0.5540488958358765,-0.0012477878978996374,0.7011339619564259,-0.005125952884554863,-0.011451425962150097,0.001625211094506085,0.0,0.0,-0.6,0.0,0.00025272369384765625,0.00025272369384765625,0.0034279823303222656,0
2.589830160140991,0.044247422367334366,-0.01539223175495863,-0.5558397173881531,-0.0012014445895607451,0.7013027283742393,-0.005630653817206621,-0.0121420007199049,0.0015888299094513059,0.0,0.0,-0.6,0.0,0.00022363662719726562,0.00022363662719726562,0.003211498260498047,0
2.5998919010162354,0.044247422367334366,-0.01539223175495863,-0.5558397173881531,-0.0012014445895607451,0.7014377315175522,-0.005983466748148203,-0.012624770402908325,0.0015631571877747774,0.0,0.0,-0.6,0.0,0.00025916099548339844,0.00025916099548339844,0.0033681392669677734,0
2.6098504066467285,0.045602161437273026,-0.01606430858373642,-0.5598747730255127,-0.0011547306709419006,0.7015401190832559,-0.006130860652774572,-0.012502784840762615,0.0015277909114956856,0.0,0.0,-0.6,0.0,0.00026297569274902344,0.00026297569274902344,0.006654024124145508,0
2.620002031326294,0.04601025953888893,-0.016268668696284294,-0.5611506700515747,-0.0011205617714612904,0.701615478268727,-0.006054470781236887,-0.012339773587882519,0.0014909296296536922,0.0,0.0,-0.6,0.0,0.0003457069396972656,0.0003457069396972656,0.004974365234375,0
2.629991054534912,0.04639698565006256,-0.016463370993733406,-0.5623750686645508,-0.0011023240043674279,0.7016682995478866,-0.005989109165966511,-0.012163199484348297,0.0014582180883735418,0.0,0.0,-0.6,0.0,0.0002658367156982422,0.0002658367156982422,0.0034677982330322266,0
2.639835834503174,0.04639698565006256,-0.016463370993733406,-0.5623750686645508,-0.0011023240043674279,0.7017105150863372,-0.00594337796792388,-0.012039649300277233,0.001435313024558127,0.0,0.0,-0.6,0.0,0.0002734661102294922,0.0002734661102294922,0.004790067672729492,0
2.649930953979492,0.047435738146305084,-0.01698838360607624,-0.5657449960708618,-0.0010477094602804379,0.7017423994027009,-0.005551681388169527,-0.01142008788883686,0.0013997710775583982,0.0,0.0,-0.6,0.0,0.00030684471130371094,0.00030684471130371094,0.0036945343017578125,0
2.6599371433258057,0.047435738146305084,-0.01698838360607624,-0.5657449960708618,-0.0010477094602804379,0.7017679293286805,-0.005277569871395826,-0.010986498557031155,0.0013747471384704113,0.0,0.0,-0.6,0.0,0.00027298927307128906,0.00027298927307128906,0.0035216808319091797,0
2.6697628498077393,0.04803760349750519,-0.017292343080043793,-0.5677490234375,-0.0009909478460889433,0.7017959138708553,-0.005052351858466864,-0.010226115584373474,0.0013355420669540763,0.0,0.0,-0.6,0.0,0.00021529197692871094,0.00021529197692871094,0.0032186508178710938,0
2.680055856704712,0.04803760349750519,-0.017292343080043793,-0.5677490234375,-0.0009909478460889433,0.7018182852118053,-0.0048947446048259735,-0.009693964384496212,0.0013079964555799961,0.0,0.0,-0.6,0.0,0.0002486705780029297,0.0002486705780029297,0.003471851348876953,0
2.6898906230926514,0.04881468415260315,-0.017674162983894348,-0.5704457759857178,-0.0009260923371652237,0.701858466314349,-0.004678164608776569,-0.008737150579690933,0.0012641815701499581,0.0,0.0,-0.6,0.0,0.0002765655517578125,0.0002765655517578125,0.0036246776580810547,0
2.6998822689056396,0.04881468415260315,-0.017674162983894348,-0.5704457759857178,-0.0009260923371652237,0.7018906175408215,-0.004526621662080288,-0.00806758925318718,0.001233387622050941,0.0,0.0,-0.6,0.0,0.0002586841583251953,0.0002586841583251953,0.0033349990844726562,0
