time,x,y,z,yaw,throttle,roll_rate,pitch_rate,yaw_rate,x_ref,y_ref,z_ref,yaw_ref,pred_time,nr_time,ctrl_callback_time,metadata
1.430511474609375e-06,-0.009592441841959953,0.02282596006989479,0.259493887424469,-0.02553762895631637,0.7213380089829035,-0.0234511885792017,-0.03449622169137001,0.00956045277416706,0.0,0.0,-0.6,0.0,0.4570136070251465,0.4570136070251465,0.5213804244995117,Sim
0.521392822265625,-0.009592441841959953,0.02282596006989479,0.259493887424469,-0.02553762895631637,0.74295962981628,-0.036548715084791183,-0.053508855402469635,0.015855103731155396,0.0,0.0,-0.6,0.0,0.0001995563507080078,0.0001995563507080078,0.0030357837677001953,jax_reg_wardi
0.529249906539917,-0.012411356903612614,0.019397087395191193,0.2827531099319458,-0.025318484915922666,0.7606339233379079,-0.038124434649944305,-0.06607961654663086,0.02017376758158207,0.0,0.0,-0.6,0.0,0.00026297569274902344,0.00026297569274902344,0.0032875537872314453,1x Speed
0.5392203330993652,-0.012320335954427719,0.019295161589980125,0.28260537981987,-0.025344247377227958,0.7745187962531165,-0.038999125361442566,-0.07369093596935272,0.02321486547589302,0.0,0.0,-0.6,0.0,0.000255584716796875,0.000255584716796875,0.0033588409423828125,circle_horz_ref_func
0.5491905212402344,-0.012240380980074406,0.01919897273182869,0.28249892592430115,-0.025364658605455313,0.7854688023866228,-0.039469458162784576,-0.0784093365073204,0.02535885013639927,0.0,0.0,-0.6,0.0,0.0002124309539794922,0.0002124309539794922,0.0030138492584228516,0
0.5593080520629883,-0.012112012133002281,0.0190237108618021,0.28231173753738403,-0.02539547880033986,0.7941269135307358,-0.03958148509263992,-0.08132051676511765,0.026881227269768715,0.0,0.0,-0.6,0.0,0.00024247169494628906,0.00024247169494628906,0.0036852359771728516,0
0.5692179203033447,-0.012064115144312382,0.01894340291619301,0.28227588534355164,-0.025396312074924498,0.8009929938684318,-0.03958470746874809,-0.08325741440057755,0.027950575575232506,0.0,0.0,-0.6,0.0,0.0002689361572265625,0.0002689361572265625,0.0036334991455078125,0
0.5794088840484619,-0.012027249671518803,0.01886933296918869,0.2822776734828949,-0.025420441552669933,0.8064483231271378,-0.039561688899993896,-0.08450749516487122,0.028710272163152695,0.0,0.0,-0.6,0.0,0.00023865699768066406,0.00023865699768066406,0.0033121109008789062,0
0.5894989967346191,-0.012000016868114471,0.018801039084792137,0.2823154330253601,-0.02543272147256342,0.8107855812429181,-0.039487045258283615,-0.08535533398389816,0.029248900711536407,0.0,0.0,-0.6,0.0,0.000232696533203125,0.000232696533203125,0.0031881332397460938,0
0.5992214679718018,-0.011979367583990097,0.018736671656370163,0.28237128257751465,-0.025419255295496157,0.8141454684567441,-0.03932468593120575,-0.08580521494150162,0.02962602488696575,0.0,0.0,-0.6,0.0,0.00021576881408691406,0.00021576881408691406,0.003644704818725586,0
0.6092667579650879,-0.011961306445300579,0.018620872870087624,0.28235915303230286,-0.02543242549015608,0.8163307604244222,-0.03891007974743843,-0.08534500002861023,0.029911426827311516,0.0,0.0,-0.6,0.0,0.0002276897430419922,0.0002276897430419922,0.0033698081970214844,0
0.6193475723266602,-0.01196421217173338,0.01857040822505951,0.2822324335575104,-0.025424231910548916,0.8177497275946205,-0.038373906165361404,-0.08448604494333267,0.030119461938738823,0.0,0.0,-0.6,0.0,0.00026106834411621094,0.00026106834411621094,0.003556966781616211,0
0.6292223930358887,-0.011976714245975018,0.018523722887039185,0.28196510672569275,-0.025393389920064617,0.8185142554691245,-0.03764975443482399,-0.08324876427650452,0.03026847541332245,0.0,0.0,-0.6,0.0,0.00023674964904785156,0.00023674964904785156,0.003204822540283203,0
0.6393640041351318,-0.011997397989034653,0.018479371443390846,0.2815799415111542,-0.025355843792844564,0.818732074655065,-0.03667910024523735,-0.08155844360589981,0.030377987772226334,0.0,0.0,-0.6,0.0,0.00024390220642089844,0.00024390220642089844,0.003351449966430664,0
0.6492879390716553,-0.012059100903570652,0.01839856058359146,0.28042542934417725,-0.02517848139360893,0.8180636892394775,-0.03512220084667206,-0.0784861370921135,0.030428815633058548,0.0,0.0,-0.6,0.0,0.0003535747528076172,0.0003535747528076172,0.005961894989013672,0
0.6593928337097168,-0.01209984440356493,0.0183611661195755,0.2796424925327301,-0.025065302538954937,0.8170801491690899,-0.03354615718126297,-0.07532861828804016,0.03044215776026249,0.0,0.0,-0.6,0.0,0.00023436546325683594,0.00023436546325683594,0.0033266544342041016,0
0.6693384647369385,-0.012146443128585815,0.018327485769987106,0.27871572971343994,-0.024945355928390523,0.8158367417285681,-0.03210819140076637,-0.0720209926366806,0.030423572286963463,0.0,0.0,-0.6,0.0,0.00025534629821777344,0.00025534629821777344,0.0033822059631347656,0
0.6793925762176514,-0.012196850031614304,0.018298117443919182,0.27764275670051575,-0.02481646309092526,0.8143722231673488,-0.030787046998739243,-0.06855092942714691,0.030379196628928185,0.0,0.0,-0.6,0.0,0.00024962425231933594,0.00024962425231933594,0.003389120101928711,0
0.6893527507781982,-0.012306512333452702,0.018251653760671616,0.27504512667655945,-0.02451903434893223,0.8122394833594959,-0.029129721224308014,-0.06375789642333984,0.030276184901595116,0.0,0.0,-0.6,0.0,0.00021910667419433594,0.00021910667419433594,0.0030379295349121094,0
0.6994354724884033,-0.012365482747554779,0.018231725320219994,0.27348360419273376,-0.02437069955271625,0.8100437832873757,-0.02749253436923027,-0.05915462225675583,0.0301674772053957,0.0,0.0,-0.6,0.0,0.0002689361572265625,0.0002689361572265625,0.0035169124603271484,0
0.7092516422271729,-0.012491322122514248,0.01819395087659359,0.2699102461338043,-0.024020728779132382,0.8073059021079936,-0.025353528559207916,-0.05350625514984131,0.030002081766724586,0.0,0.0,-0.6,0.0,0.0004286766052246094,0.0004286766052246094,0.005150556564331055,0
0.7194511890411377,-0.012557280249893665,0.018176306039094925,0.26789912581443787,-0.02382111611854604,0.8046208459901861,-0.02333175577223301,-0.04828809201717377,0.02982756309211254,0.0,0.0,-0.6,0.0,0.0002396106719970703,0.0002396106719970703,0.003482341766357422,0
0.7292587757110596,-0.012624013237655163,0.01815844513475895,0.26573964953422546,-0.023612515037894244,0.8019750897336356,-0.021371806040406227,-0.04322723299264908,0.029645228758454323,0.0,0.0,-0.6,0.0,0.00023889541625976562,0.00023889541625976562,0.003889322280883789,0
0.7393410205841064,-0.012692824937403202,0.018141675740480423,0.26343318819999695,-0.02342074257871043,0.7993622740586799,-0.0195067897439003,-0.03838628903031349,0.029460690915584564,0.0,0.0,-0.6,0.0,0.00028133392333984375,0.00028133392333984375,0.004023313522338867,0
0.7493207454681396,-0.012826682068407536,0.01811160147190094,0.2583872377872467,-0.023041814995351347,0.7962948384878717,-0.01723744161427021,-0.03239619731903076,0.029225153848528862,0.0,0.0,-0.6,0.0,0.0003101825714111328,0.0003101825714111328,0.0042040348052978516,0
0.7593274116516113,-0.012891290709376335,0.018096793442964554,0.25565409660339355,-0.022820980585373733,0.7933573613062131,-0.015083583071827888,-0.02689150534570217,0.028989750891923904,0.0,0.0,-0.6,0.0,0.00027823448181152344,0.00027823448181152344,0.0032362937927246094,0
0.769310474395752,-0.012953726574778557,0.01808188669383526,0.25273266434669495,-0.022605076907578254,0.7905276174830289,-0.013013743795454502,-0.021650133654475212,0.02875695750117302,0.0,0.0,-0.6,0.0,0.0002675056457519531,0.0002675056457519531,0.0033416748046875,0
0.7794098854064941,-0.013012513518333435,0.01806516759097576,0.2496807873249054,-0.022383734892104563,0.787789037440765,-0.010988681577146053,-0.016654297709465027,0.028522780165076256,0.0,0.0,-0.6,0.0,0.00029921531677246094,0.00029921531677246094,0.0034906864166259766,0
0.7893462181091309,-0.013067465275526047,0.018047507852315903,0.24650128185749054,-0.02215062033821633,0.7851294043810769,-0.009095621295273304,-0.011851323768496513,0.02828158251941204,0.0,0.0,-0.6,0.0,0.0002627372741699219,0.0002627372741699219,0.0032987594604492188,0
0.7994425296783447,-0.013160991482436657,0.018008431419730186,0.23977155983448029,-0.021699040583134595,0.7820840025190344,-0.006852173246443272,-0.005957343149930239,0.027967914938926697,0.0,0.0,-0.6,0.0,0.0003075599670410156,0.0003075599670410156,0.003500699996948242,0
0.809166431427002,-0.01319902017712593,0.017984580248594284,0.23622898757457733,-0.02149227127611605,0.7791967569890144,-0.004764876328408718,-0.0006496426649391651,0.027675781399011612,0.0,0.0,-0.6,0.0,0.00024366378784179688,0.00024366378784179688,0.003405332565307617,0
0.8194606304168701,-0.013232541270554066,0.01795814000070095,0.23257288336753845,-0.021273408699556906,0.7764424895565025,-0.002831816440448165,0.004266040399670601,0.027394184842705727,0.0,0.0,-0.6,0.0,0.00035119056701660156,0.00035119056701660156,0.004110813140869141,0
0.8293323516845703,-0.01326022669672966,0.01792898215353489,0.22880691289901733,-0.021047304726514615,0.7738021443667896,-0.001025335630401969,0.008880545385181904,0.027116654440760612,0.0,0.0,-0.6,0.0,0.0002644062042236328,0.0002644062042236328,0.0032770633697509766,0
0.8393235206604004,-0.013293872587382793,0.01786245033144951,0.2208910882472992,-0.0206051153851689,0.7708398963070078,0.001123537658713758,0.01425527036190033,0.02676849253475666,0.0,0.0,-0.6,0.0,0.0002701282501220703,0.0002701282501220703,0.0031280517578125,0
0.8492336273193359,-0.013301380909979343,0.01782563328742981,0.21675099432468414,-0.020376199511502234,0.7680541457766329,0.0031020818278193474,0.019003598019480705,0.026438383385539055,0.0,0.0,-0.6,0.0,0.00022172927856445312,0.00022172927856445312,0.0030913352966308594,0
0.8594074249267578,-0.013303146697580814,0.017784852534532547,0.21251821517944336,-0.020144208312166238,0.7654179264956326,0.004988435190171003,0.02329355664551258,0.02611933834850788,0.0,0.0,-0.6,0.0,0.00027823448181152344,0.00027823448181152344,0.00342559814453125,0
0.8691449165344238,-0.013297614641487598,0.017740309238433838,0.20819702744483948,-0.019902815938586674,0.7629116771141761,0.00677819550037384,0.027296025305986404,0.025804651901125908,0.0,0.0,-0.6,0.0,0.00019693374633789062,0.00019693374633789062,0.0028603076934814453,0
0.87941575050354,-0.01328363548964262,0.017692523077130318,0.20379097759723663,-0.019679455659789784,0.7605145626309877,0.008448821492493153,0.031103303655982018,0.02549966610968113,0.0,0.0,-0.6,0.0,0.0002295970916748047,0.0002295970916748047,0.0031952857971191406,0
0.8891916275024414,-0.013234760612249374,0.017583884298801422,0.19473227858543396,-0.01922125095759981,0.7578337178614513,0.010537859052419662,0.03542093187570572,0.02511204220354557,0.0,0.0,-0.6,0.0,0.0002048015594482422,0.0002048015594482422,0.0029942989349365234,0
0.8993809223175049,-0.013198986649513245,0.017524177208542824,0.19008824229240417,-0.01899382270192143,0.7553217596320112,0.012326345779001713,0.03930191323161125,0.024751052260398865,0.0,0.0,-0.6,0.0,0.0002224445343017578,0.0002224445343017578,0.0031273365020751953,0
0.9093763828277588,-0.012764141894876957,0.017337221652269363,0.1849171370267868,-0.01875287038140836,0.7529422606483981,0.013911798596382141,0.043056830763816833,0.024404270574450493,0.0,0.0,-0.6,0.0,0.00026488304138183594,0.00026488304138183594,0.003705739974975586,0
0.9193012714385986,-0.011892964132130146,0.01696569286286831,0.17432600259780884,-0.01831188108604868,0.7503224755938185,0.01566074974834919,0.04754246026277542,0.023990429937839508,0.0,0.0,-0.6,0.0,0.0003437995910644531,0.0003437995910644531,0.004251003265380859,0
0.9292426109313965,-0.011456889100372791,0.01678006909787655,0.16895833611488342,-0.01810442548779365,0.7478772021938083,0.017147161066532135,0.05156315490603447,0.02361651137471199,0.0,0.0,-0.6,0.0,0.0002269744873046875,0.0002269744873046875,0.0030715465545654297,0
0.9393534660339355,-0.011021331883966923,0.016594648361206055,0.1635465770959854,-0.017899304058906752,0.7455821219727863,0.01856968179345131,0.05516078323125839,0.023269521072506905,0.0,0.0,-0.6,0.0,0.00025773048400878906,0.00025773048400878906,0.003721952438354492,0
0.9492616653442383,-0.010154111310839653,0.016219785436987877,0.15260621905326843,-0.017446029651047454,0.7431033447923214,0.020260049030184746,0.05917173996567726,0.022842880338430405,0.0,0.0,-0.6,0.0,0.00029397010803222656,0.00029397010803222656,0.003981351852416992,0
0.9594736099243164,-0.009721411392092705,0.01602991484105587,0.1470823585987091,-0.01724193901892348,0.7408027042653943,0.021814214065670967,0.06261897087097168,0.022456342354416847,0.0,0.0,-0.6,0.0,0.0003154277801513672,0.0003154277801513672,0.0036623477935791016,0
0.9691457748413086,-0.009288477711379528,0.015837986022233963,0.14152537286281586,-0.017028467022939617,0.7386554343113744,0.023224785923957825,0.06563836336135864,0.02209506928920746,0.0,0.0,-0.6,0.0,0.0002167224884033203,0.0002167224884033203,0.0042073726654052734,0
0.9796059131622314,-0.008854260668158531,0.015644917264580727,0.13593992590904236,-0.016809868307610765,0.7366456089647515,0.024448713287711143,0.06833738088607788,0.021750878542661667,0.0,0.0,-0.6,0.0,0.00041937828063964844,0.00041937828063964844,0.005175113677978516,0
0.9895391464233398,-0.007979237474501133,0.015257018618285656,0.12460166960954666,-0.01638401526342685,0.7344700788524416,0.025730160996317863,0.0712752491235733,0.02133484184741974,0.0,0.0,-0.6,0.0,0.0002677440643310547,0.0002677440643310547,0.0033843517303466797,0
0.9992854595184326,-0.007537304423749447,0.015062198974192142,0.11889959871768951,-0.0161990056138906,0.7324499234188204,0.026763970032334328,0.07384978979825974,0.020965201780200005,0.0,0.0,-0.6,0.0,0.0002052783966064453,0.0002052783966064453,0.003029346466064453,0
1.0092124938964844,-0.007092291489243507,0.014867139980196953,0.11318030208349228,-0.016007689168982344,0.7305728444874657,0.02756888046860695,0.07606478035449982,0.020627060905098915,0.0,0.0,-0.6,0.0,0.00021505355834960938,0.00021505355834960938,0.003083944320678711,0
1.0192902088165283,-0.006645393092185259,0.014671535231173038,0.10744854807853699,-0.015823981524524387,0.7288163623505511,0.028263630345463753,0.07794202864170074,0.020312925800681114,0.0,0.0,-0.6,0.0,0.00026035308837890625,0.00026035308837890625,0.003410816192626953,0
1.02921724319458,-0.00619612168520689,0.01447422243654728,0.1017032116651535,-0.01567223751110886,0.7271526839102923,0.028921686112880707,0.07954394817352295,0.020026613026857376,0.0,0.0,-0.6,0.0,0.00020551681518554688,0.00020551681518554688,0.0030519962310791016,0
1.039416790008545,-0.0057456293143332005,0.01427505910396576,0.0959450975060463,-0.015462779820394436,0.7255707873949998,0.02953893132507801,0.08088026940822601,0.019738946110010147,0.0,0.0,-0.6,0.0,0.00024437904357910156,0.00024437904357910156,0.0033235549926757812,0
1.0492000579833984,-0.004844782408326864,0.013877051882445812,0.08440272510051727,-0.015063243936979819,0.7238365280806623,0.030008336529135704,0.08195813745260239,0.019378038123250008,0.0,0.0,-0.6,0.0,0.0002009868621826172,0.0002009868621826172,0.0031266212463378906,0
1.0593171119689941,-0.004394154530018568,0.013678006827831268,0.07857587188482285,-0.01490197231893834,0.7222213433741549,0.030404282733798027,0.08287444710731506,0.019058197736740112,0.0,0.0,-0.6,0.0,0.00021338462829589844,0.00021338462829589844,0.003152132034301758,0
1.069300889968872,-0.003941785544157028,0.013477740809321404,0.07274875044822693,-0.014743123074680509,0.7207150464686266,0.030756941065192223,0.08349070698022842,0.018767815083265305,0.0,0.0,-0.6,0.0,0.0002651214599609375,0.0002651214599609375,0.0032846927642822266,0
1.079200267791748,-0.003488807938992977,0.013276958838105202,0.06692422926425934,-0.014577706557350644,0.7193005019527328,0.030972780659794807,0.08392976224422455,0.018498647958040237,0.0,0.0,-0.6,0.0,0.0002071857452392578,0.0002071857452392578,0.003162384033203125,0
1.0894567966461182,-0.0025822899769991636,0.012877676635980606,0.055288515985012054,-0.01421947660166492,0.7177705592034969,0.030931664630770683,0.0838981419801712,0.01817241869866848,0.0,0.0,-0.6,0.0,0.00021648406982421875,0.00021648406982421875,0.0030782222747802734,0
1.0994060039520264,-0.0021250953432172537,0.01267908327281475,0.04948089271783829,-0.014040500719618942,0.7163558889969497,0.030873913317918777,0.08361686766147614,0.017873452976346016,0.0,0.0,-0.6,0.0,0.00023889541625976562,0.00023889541625976562,0.0033583641052246094,0
1.109201192855835,-0.0012155212461948395,0.012278895825147629,0.03789626061916351,-0.013662859717439593,0.7148644442482442,0.03086470253765583,0.08273299783468246,0.017514359205961227,0.0,0.0,-0.6,0.0,0.00023365020751953125,0.00023365020751953125,0.0030651092529296875,0
1.1193323135375977,-0.0007635389920324087,0.012075983919203281,0.03212137147784233,-0.013504714357806953,0.7134961201505512,0.0308129470795393,0.08172059804201126,0.01720188558101654,0.0,0.0,-0.6,0.0,0.0002586841583251953,0.0002586841583251953,0.003227710723876953,0
1.1292006969451904,-0.00031426316127181053,0.011872589588165283,0.026318136602640152,-0.013340004600338032,0.7122285315722416,0.03070061281323433,0.08052822947502136,0.016920465975999832,0.0,0.0,-0.6,0.0,0.000240325927734375,0.000240325927734375,0.0031435489654541016,0
1.1393303871154785,0.00013144858530722558,0.011668361723423004,0.020530231297016144,-0.013160269332531645,0.7110507844765332,0.03054584562778473,0.07917685061693192,0.01665501482784748,0.0,0.0,-0.6,0.0,0.00025725364685058594,0.00025725364685058594,0.003609180450439453,0
1.1494746208190918,0.0010147376451641321,0.011259101331233978,0.009008725173771381,-0.012850249643065536,0.7097988947880826,0.029978936538100243,0.07721516489982605,0.016359377652406693,0.0,0.0,-0.6,0.0,0.0004374980926513672,0.0004374980926513672,0.005699634552001953,0
1.1593844890594482,0.0014525584410876036,0.011056283488869667,0.003278514835983515,-0.012686862731408318,0.7086553654060548,0.02947370707988739,0.07527165114879608,0.01609121263027191,0.0,0.0,-0.6,0.0,0.00036215782165527344,0.00036215782165527344,0.004715681076049805,0
1.1693463325500488,0.0018902026349678636,0.01085066981613636,-0.0024290536530315876,-0.012511489087622854,0.7075998390292063,0.029021887108683586,0.07331862300634384,0.015837447717785835,0.0,0.0,-0.6,0.0,0.00025200843811035156,0.00025200843811035156,0.003242015838623047,0
1.1793205738067627,0.002324004890397191,0.01064511388540268,-0.008112679235637188,-0.012360017276729167,0.7066234019045071,0.028454191982746124,0.07130344212055206,0.015607155859470367,0.0,0.0,-0.6,0.0,0.0002319812774658203,0.0002319812774658203,0.0031414031982421875,0
1.189211368560791,0.0031797015108168125,0.010236991569399834,-0.019402967765927315,-0.012060643025315738,0.7055926389931825,0.027585018426179886,0.06855012476444244,0.015343040227890015,0.0,0.0,-0.6,0.0,0.0002090930938720703,0.0002090930938720703,0.0029494762420654297,0
1.1994943618774414,0.0036014833021909,0.01003357581794262,-0.025060733780264854,-0.011887117568015899,0.7046465839112225,0.026802221313118935,0.06591039150953293,0.015095668844878674,0.0,0.0,-0.6,0.0,0.0002696514129638672,0.0002696514129638672,0.0036683082580566406,0
1.2091712951660156,0.00401803245767951,0.009831199422478676,-0.030689552426338196,-0.011710160519721673,0.70376916773412,0.026004794985055923,0.06329222023487091,0.014861411415040493,0.0,0.0,-0.6,0.0,0.0002338886260986328,0.0002338886260986328,0.003312349319458008,0
1.2194023132324219,0.004429948516190052,0.009630474261939526,-0.03629046678543091,-0.011560653655496795,0.7029466825387599,0.025253623723983765,0.06076743081212044,0.014645091257989407,0.0,0.0,-0.6,0.0,0.0002694129943847656,0.0002694129943847656,0.003291606903076172,0
1.229325532913208,0.004837710410356522,0.009430024772882462,-0.041862986981868744,-0.011444983792379649,0.7021730252881856,0.024612033739686012,0.05830742418766022,0.014452404342591763,0.0,0.0,-0.6,0.0,0.0002453327178955078,0.0002453327178955078,0.0031554698944091797,0
1.2391905784606934,0.005240380764007568,0.009229406714439392,-0.04740476980805397,-0.011311014548803264,0.7014513397580666,0.024017341434955597,0.05579492077231407,0.014270913787186146,0.0,0.0,-0.6,0.0,0.0002124309539794922,0.0002124309539794922,0.002973794937133789,0
1.24928617477417,0.0060434406623244286,0.008833481930196285,-0.05838602036237717,-0.010964913638521832,0.7006851753342258,0.023247437551617622,0.05241191387176514,0.014024319127202034,0.0,0.0,-0.6,0.0,0.00027251243591308594,0.00027251243591308594,0.0042269229888916016,0
1.259338140487671,0.006434349343180656,0.0086363535374403,-0.06382492184638977,-0.010808186312744147,0.6999800388134694,0.022463684901595116,0.04920598492026329,0.013798299245536327,0.0,0.0,-0.6,0.0,0.00032138824462890625,0.00032138824462890625,0.0037479400634765625,0
1.2691864967346191,0.0072000338695943356,0.008247402496635914,-0.07464403659105301,-0.01049335756233046,0.6992425711259379,0.02134227752685547,0.04562784731388092,0.013533477671444416,0.0,0.0,-0.6,0.0,0.0002200603485107422,0.0002200603485107422,0.0029904842376708984,0
1.2794239521026611,0.007575041148811579,0.008055856451392174,-0.08002306520938873,-0.010358751407452498,0.6985675065390528,0.020302988588809967,0.04233764484524727,0.013302240520715714,0.0,0.0,-0.6,0.0,0.00025200843811035156,0.00025200843811035156,0.003240823745727539,0
1.2891712188720703,0.007943321950733662,0.007865163497626781,-0.08536466956138611,-0.010207051349005451,0.6979485024110266,0.019421739503741264,0.03924820199608803,0.013086697086691856,0.0,0.0,-0.6,0.0,0.0002040863037109375,0.0002040863037109375,0.0034279823303222656,0
1.2994499206542969,0.008304589428007603,0.007675220258533955,-0.09066799283027649,-0.010063817264602782,0.6973776160013523,0.018559694290161133,0.03629935905337334,0.01288705226033926,0.0,0.0,-0.6,0.0,0.00031185150146484375,0.00031185150146484375,0.004067659378051758,0
1.30940580368042,0.009009833447635174,0.007094359025359154,-0.09699934720993042,-0.009937609302766312,0.6968144388752001,0.018026262521743774,0.03375440463423729,0.01269895676523447,0.0,0.0,-0.6,0.0,0.00030684471130371094,0.00030684471130371094,0.003630399703979492,0
1.3192973136901855,0.010373447090387344,0.005964583717286587,-0.10946264863014221,-0.009671405493608856,0.6961674604001347,0.017707394436001778,0.030869776383042336,0.012470373883843422,0.0,0.0,-0.6,0.0,0.0003120899200439453,0.0003120899200439453,0.003244638442993164,0
1.3293135166168213,0.011029887944459915,0.005415695253759623,-0.11559364199638367,-0.009534846422588488,0.6955557805710421,0.017514048144221306,0.028236092999577522,0.012261059135198593,0.0,0.0,-0.6,0.0,0.00023484230041503906,0.00023484230041503906,0.003246307373046875,0
1.3393688201904297,0.011670573614537716,0.004876741673797369,-0.12165914475917816,-0.0093749117876188,0.6949768864564554,0.017366692423820496,0.025952739641070366,0.01205609180033207,0.0,0.0,-0.6,0.0,0.0002307891845703125,0.0002307891845703125,0.003369569778442383,0
1.349151611328125,0.012297437526285648,0.004348554648458958,-0.12770381569862366,-0.009225690709876855,0.6944307317192607,0.01721085049211979,0.023893136531114578,0.01185911986976862,0.0,0.0,-0.6,0.0,0.0002048015594482422,0.0002048015594482422,0.002877950668334961,0
1.3594598770141602,0.012909043580293655,0.0038313940167427063,-0.13368037343025208,-0.0091053146591024,0.693915376472833,0.017040319740772247,0.0218830443918705,0.011679431423544884,0.0,0.0,-0.6,0.0,0.00023627281188964844,0.00023627281188964844,0.0032460689544677734,0
1.3691341876983643,0.014087692834436893,0.00282959989272058,-0.1454312950372696,-0.008866929862045325,0.6933547834985304,0.016682682558894157,0.019518360495567322,0.011471159756183624,0.0,0.0,-0.6,0.0,0.0001964569091796875,0.0001964569091796875,0.003004312515258789,0
1.379342794418335,0.014656318351626396,0.002344480250030756,-0.1512070894241333,-0.008754321494665242,0.6928386500417346,0.01636139117181301,0.017475802451372147,0.011285283602774143,0.0,0.0,-0.6,0.0,0.00026035308837890625,0.00026035308837890625,0.0034017562866210938,0
1.3892831802368164,0.015756838023662567,0.0014048749580979347,-0.1625586450099945,-0.008465143463814672,0.6922990675874862,0.01596170850098133,0.015004407614469528,0.011054358445107937,0.0,0.0,-0.6,0.0,0.00023174285888671875,0.00023174285888671875,0.0031006336212158203,0
1.3991806507110596,0.01628367230296135,0.0009492186363786459,-0.16813670098781586,-0.008330190120486367,0.6918074260828829,0.01568429358303547,0.012758009135723114,0.010845214128494263,0.0,0.0,-0.6,0.0,0.00020360946655273438,0.00020360946655273438,0.002894878387451172,0
1.409395694732666,0.016795268282294273,0.0005023259436711669,-0.17364995181560516,-0.008225406463100578,0.6913593921221887,0.01549510657787323,0.01074318028986454,0.010662349872291088,0.0,0.0,-0.6,0.0,0.0003190040588378906,0.0003190040588378906,0.0042798519134521484,0
1.419454574584961,0.017291439697146416,6.332292105071247e-05,-0.17912818491458893,-0.008115652536415047,0.6909554349013602,0.01535947248339653,0.008873172104358673,0.010496440343558788,0.0,0.0,-0.6,0.0,0.00030422210693359375,0.00030422210693359375,0.0036971569061279297,0
1.429197072982788,0.017772292718291283,-0.0003669388242997229,-0.18453848361968994,-0.008004089342856973,0.6905881117876742,0.015217103995382786,0.0071279630064964294,0.010341870598495007,0.0,0.0,-0.6,0.0,0.00022339820861816406,0.00022339820861816406,0.0028448104858398438,0
1.43943452835083,0.01823849231004715,-0.0007878910400904715,-0.18988314270973206,-0.007886491589287326,0.6902483786759704,0.015055972151458263,0.0055518606677651405,0.010192391462624073,0.0,0.0,-0.6,0.0,0.000232696533203125,0.000232696533203125,0.0035305023193359375,0
1.4491732120513916,0.019127678126096725,-0.0016064322553575039,-0.20037958025932312,-0.007658630853218261,0.6898916856126541,0.01496912445873022,0.0036710628774017096,0.010008583776652813,0.0,0.0,-0.6,0.0,0.00019598007202148438,0.00019598007202148438,0.003026247024536133,0
1.4594011306762695,0.019550930708646774,-0.002005730289965868,-0.20553092658519745,-0.007528186193807965,0.6895760333875389,0.014853669330477715,0.0020315488800406456,0.009833788499236107,0.0,0.0,-0.6,0.0,0.0003712177276611328,0.0003712177276611328,0.0060024261474609375,0
1.4694294929504395,0.020358659327030182,-0.002779340371489525,-0.21563617885112762,-0.007348214319293154,0.6892708264594606,0.014522925950586796,0.00028555424069054425,0.009649454616010189,0.0,0.0,-0.6,0.0,0.0003273487091064453,0.0003273487091064453,0.004772663116455078,0
1.4793806076049805,0.02074156142771244,-0.0031517110764980316,-0.22059060633182526,-0.00724730667695629,0.6890053073332271,0.014072580263018608,-0.0011948620667681098,0.009484702721238136,0.0,0.0,-0.6,0.0,0.0003180503845214844,0.0003180503845214844,0.005128622055053711,0
1.4897403717041016,0.021112237125635147,-0.0035153506323695183,-0.22553187608718872,-0.007152993107791448,0.6887720678370908,0.013687266036868095,-0.002446341561153531,0.00933566689491272,0.0,0.0,-0.6,0.0,0.000400543212890625,0.000400543212890625,0.004639625549316406,0
1.4994354248046875,0.02146945893764496,-0.003871331224218011,-0.2304072231054306,-0.0070502768563816985,0.6885669755956053,0.013269097544252872,-0.003677417291328311,0.009195786900818348,0.0,0.0,-0.6,0.0,0.0002810955047607422,0.0002810955047607422,0.003518819808959961,0
1.5091180801391602,0.02214052714407444,-0.004557382315397263,-0.239960178732872,-0.006831706245905424,0.6883766945439217,0.012666214257478714,-0.0051653641276061535,0.00902128592133522,0.0,0.0,-0.6,0.0,0.0002117156982421875,0.0002117156982421875,0.0030167102813720703,0
1.5194504261016846,0.02245560847222805,-0.004886594135314226,-0.24463872611522675,-0.00672105819119708,0.6882131691363701,0.011999191716313362,-0.006476157810539007,0.008859366178512573,0.0,0.0,-0.6,0.0,0.0002548694610595703,0.0002548694610595703,0.003228902816772461,0
1.529127836227417,0.022757673636078835,-0.005208558402955532,-0.24925343692302704,-0.006638259730602159,0.6880709834780113,0.011440099216997623,-0.0077124410308897495,0.008717316202819347,0.0,0.0,-0.6,0.0,0.0001888275146484375,0.0001888275146484375,0.0029861927032470703,0
1.5394055843353271,0.023046856746077538,-0.005522823892533779,-0.25380468368530273,-0.006556604044962826,0.6879492369435991,0.010897336527705193,-0.008817101828753948,0.008588877506554127,0.0,0.0,-0.6,0.0,0.000232696533203125,0.000232696533203125,0.0031697750091552734,0
1.5492713451385498,0.02332383394241333,-0.005829292349517345,-0.2582934498786926,-0.006497535452886229,0.6878442104883427,0.010356037877500057,-0.009852355346083641,0.008478686213493347,0.0,0.0,-0.6,0.0,0.00023865699768066406,0.00023865699768066406,0.003312826156616211,0
1.5593147277832031,0.02383897267282009,-0.00641864025965333,-0.26713988184928894,-0.006329387374731425,0.6877545223608684,0.009707925841212273,-0.011080880649387836,0.008342326618731022,0.0,0.0,-0.6,0.0,0.0002143383026123047,0.0002143383026123047,0.0030524730682373047,0
1.5692667961120605,0.02407754585146904,-0.006702879443764687,-0.27149611711502075,-0.006246875891540771,0.6876860891243415,0.009166230447590351,-0.012203476391732693,0.008217805996537209,0.0,0.0,-0.6,0.0,0.0002446174621582031,0.0002446174621582031,0.003133058547973633,0
1.579289197921753,0.024302713572978973,-0.0069805639795959,-0.27578744292259216,-0.006133723563790945,0.6876387576167136,0.008612362667918205,-0.013297419995069504,0.008090251125395298,0.0,0.0,-0.6,0.0,0.000217437744140625,0.000217437744140625,0.0031480789184570312,0
1.5894126892089844,0.02471720054745674,-0.007513275370001793,-0.28417739272117615,-0.005916043180206456,0.6876189989455562,0.00778559222817421,-0.014356394298374653,0.007920697331428528,0.0,0.0,-0.6,0.0,0.00022721290588378906,0.00022721290588378906,0.0031311511993408203,0
1.5994033813476562,0.024906903505325317,-0.007767985574901104,-0.2882780134677887,-0.00581986193774501,0.6876102303804846,0.00689662666991353,-0.015292175114154816,0.007766176946461201,0.0,0.0,-0.6,0.0,0.00023436546325683594,0.00023436546325683594,0.0033631324768066406,0
1.6091978549957275,0.025084462016820908,-0.00801372341811657,-0.29231658577919006,-0.005723645093478182,0.687617253175678,0.005991674028337002,-0.016160864382982254,0.00762224430218339,0.0,0.0,-0.6,0.0,0.00022482872009277344,0.00022482872009277344,0.003218412399291992,0
1.6194603443145752,0.025250108912587166,-0.008250984363257885,-0.29629284143447876,-0.005636336992735164,0.6876379641053368,0.005128228571265936,-0.016932915896177292,0.007488896604627371,0.0,0.0,-0.6,0.0,0.0002918243408203125,0.0002918243408203125,0.0032062530517578125,0
1.62931489944458,0.025403276085853577,-0.008481500670313835,-0.300207257270813,-0.005566372679766749,0.6876702593725372,0.0043864320032298565,-0.01771439239382744,0.007370544131845236,0.0,0.0,-0.6,0.0,0.00023555755615234375,0.00023555755615234375,0.003237009048461914,0
1.6393063068389893,0.025543566793203354,-0.008706186898052692,-0.30411484837532043,-0.005516004575183206,0.6877133837887992,0.003769239876419306,-0.018454864621162415,0.007269785273820162,0.0,0.0,-0.6,0.0,0.000213623046875,0.000213623046875,0.0031409263610839844,0
1.6493010520935059,0.02578708902001381,-0.009133889339864254,-0.3117434084415436,-0.005384024716032588,0.6877891929317131,0.0029119246173650026,-0.019302500411868095,0.007150025572627783,0.0,0.0,-0.6,0.0,0.00024509429931640625,0.00024509429931640625,0.0031595230102539062,0
1.659372329711914,0.02589190937578678,-0.009335544891655445,-0.31546467542648315,-0.005303577553101794,0.6878701114396967,0.0020539916586130857,-0.020005352795124054,0.007035230752080679,0.0,0.0,-0.6,0.0,0.0003085136413574219,0.0003085136413574219,0.0034339427947998047,0
1.6691932678222656,0.02598557434976101,-0.009529253467917442,-0.31912580132484436,-0.005229783641868111,0.6879576051412919,0.0012220897478982806,-0.02065195143222809,0.006926802918314934,0.0,0.0,-0.6,0.0,0.00020623207092285156,0.00020623207092285156,0.002967357635498047,0
1.679408311843872,0.026132673025131226,-0.009890818037092686,-0.32626834511756897,-0.0051233543125136895,0.688080262409864,9.4587892817799e-05,-0.021269487217068672,0.0068087209947407246,0.0,0.0,-0.6,0.0,0.00026679039001464844,0.00026679039001464844,0.0033020973205566406,0
1.6891582012176514,0.02619144879281521,-0.010059840977191925,-0.3297499418258667,-0.005036349719820744,0.6882038917691286,-0.0008226409554481506,-0.021725911647081375,0.006692428607493639,0.0,0.0,-0.6,0.0,0.0001804828643798828,0.0001804828643798828,0.0028514862060546875,0
1.6993367671966553,0.026241296902298927,-0.010222211480140686,-0.33317339420318604,-0.0049452639180810115,0.6883324568353125,-0.0015945859486237168,-0.022039322182536125,0.006575787905603647,0.0,0.0,-0.6,0.0,0.00024056434631347656,0.00024056434631347656,0.003201007843017578,0
1.7093188762664795,0.026843111962080002,-0.01037841010838747,-0.33808574080467224,-0.00484039317702997,0.6884108224777232,-0.0022852907422930002,-0.021861044690012932,0.006451186258345842,0.0,0.0,-0.6,0.0,0.00030732154846191406,0.00030732154846191406,0.0033643245697021484,0
1.7193140983581543,0.027424653992056847,-0.010527193546295166,-0.34290316700935364,-0.004757374242012189,0.6884481989959771,-0.002900846768170595,-0.021254923194646835,0.006329231429845095,0.0,0.0,-0.6,0.0,0.0003190040588378906,0.0003190040588378906,0.004373073577880859,0
1.7293601036071777,0.028526194393634796,-0.010807010345160961,-0.3522585332393646,-0.004597229181804705,0.6884411043318328,-0.0034930838737636805,-0.02014090307056904,0.0061792368069291115,0.0,0.0,-0.6,0.0,0.0002789497375488281,0.0002789497375488281,0.0033881664276123047,0
1.7392783164978027,0.029046131297945976,-0.01093762181699276,-0.35679948329925537,-0.004511568239159989,0.6884182345050119,-0.004112414084374905,-0.01888735592365265,0.006038638763129711,0.0,0.0,-0.6,0.0,0.00026988983154296875,0.00026988983154296875,0.003493785858154297,0
1.7491803169250488,0.02954789251089096,-0.011060180142521858,-0.36125215888023376,-0.004457903771938623,0.6883849392904459,-0.004798660520464182,-0.017694931477308273,0.0059173027984797955,0.0,0.0,-0.6,0.0,0.00020313262939453125,0.00020313262939453125,0.0028450489044189453,0
1.759343147277832,0.030491620302200317,-0.011283555999398232,-0.36989617347717285,-0.004277674068607789,0.6883401074409445,-0.005586105864495039,-0.016195736825466156,0.005760159343481064,0.0,0.0,-0.6,0.0,0.0002491474151611328,0.0002491474151611328,0.0032858848571777344,0
1.7691075801849365,0.030936671420931816,-0.011385712772607803,-0.37408962845802307,-0.004179385935349164,0.6882985633628923,-0.006285151932388544,-0.01466358546167612,0.005610994528979063,0.0,0.0,-0.6,0.0,0.0001914501190185547,0.0001914501190185547,0.0029189586639404297,0
1.7792320251464844,0.03136538341641426,-0.011482207104563713,-0.37823137640953064,-0.004110003169528478,0.6882565413620112,-0.006857928354293108,-0.013158980756998062,0.005478860344737768,0.0,0.0,-0.6,0.0,0.00022935867309570312,0.00022935867309570312,0.0031404495239257812,0
1.7895176410675049,0.0317765511572361,-0.011573858559131622,-0.38229134678840637,-0.0040109548748574605,0.6882177681326399,-0.007339163683354855,-0.011745503172278404,0.005347813479602337,0.0,0.0,-0.6,0.0,0.00023889541625976562,0.00023889541625976562,0.0031023025512695312,0
1.7991936206817627,0.03254912421107292,-0.011734895408153534,-0.3901676535606384,-0.003859766025604682,0.6881856142432441,-0.008070978336036205,-0.010011927224695683,0.005195043049752712,0.0,0.0,-0.6,0.0,0.00022411346435546875,0.00022411346435546875,0.0031337738037109375,0
1.8093020915985107,0.03291003778576851,-0.011805637739598751,-0.39398714900016785,-0.0038033911095896535,0.6881615078776684,-0.008680001832544804,-0.008573248982429504,0.005066493060439825,0.0,0.0,-0.6,0.0,0.0003108978271484375,0.0003108978271484375,0.004376411437988281,0
1.819380760192871,0.03324604034423828,-0.01186846662312746,-0.39772915840148926,-0.003747167524435082,0.6881462824247793,-0.009238466620445251,-0.007299333345144987,0.004954562056809664,0.0,0.0,-0.6,0.0,0.0003211498260498047,0.0003211498260498047,0.0037994384765625,0
1.829195499420166,0.033565275371074677,-0.011926337145268917,-0.4013947546482086,-0.003661457758598698,0.6881395418959767,-0.009675364941358566,-0.006194897927343845,0.004843659698963165,0.0,0.0,-0.6,0.0,0.00023245811462402344,0.00023245811462402344,0.003008604049682617,0
1.8394315242767334,0.03415864333510399,-0.012027118355035782,-0.40850114822387695,-0.0035285237391388686,0.6881560362643935,-0.01012090127915144,-0.004813394974917173,0.004714212846010923,0.0,0.0,-0.6,0.0,0.0002288818359375,0.0002288818359375,0.0031561851501464844,0
1.84913969039917,0.034434884786605835,-0.01206988375633955,-0.4119808077812195,-0.0034650989006582275,0.6881848609304799,-0.010478063486516476,-0.0035866093821823597,0.004599344450980425,0.0,0.0,-0.6,0.0,0.00021123886108398438,0.00021123886108398438,0.0029363632202148438,0
1.8592233657836914,0.03469808027148247,-0.012107433751225471,-0.4153866171836853,-0.003422988989816386,0.688221930994057,-0.010882094502449036,-0.002453153021633625,0.0045024678111076355,0.0,0.0,-0.6,0.0,0.00021910667419433594,0.00021910667419433594,0.003154754638671875,0
1.8693475723266602,0.03494885191321373,-0.012137679383158684,-0.4187190532684326,-0.003382042199528052,0.6882717250415621,-0.01136873010545969,-0.0013487711548805237,0.004418627358973026,0.0,0.0,-0.6,0.0,0.00023865699768066406,0.00023865699768066406,0.0031342506408691406,0
1.8793330192565918,0.0351867750287056,-0.012160993181169033,-0.42197784781455994,-0.003328435220314674,0.6883345974267525,-0.011859262362122536,-0.0004224549629725516,0.0043397629633545876,0.0,0.0,-0.6,0.0,0.0002052783966064453,0.0002052783966064453,0.0029735565185546875,0
1.889328956604004,0.03562280535697937,-0.012187688611447811,-0.4282820522785187,-0.0032441729111065145,0.6884306009408818,-0.012460525147616863,0.0006009574281051755,0.004252544138580561,0.0,0.0,-0.6,0.0,0.0002353191375732422,0.0002353191375732422,0.003212451934814453,0
1.899501085281372,0.03582259267568588,-0.012192036025226116,-0.4313284754753113,-0.0031867352734582647,0.6885333299867545,-0.012922760099172592,0.001477541634812951,0.004170131869614124,0.0,0.0,-0.6,0.0,0.00033664703369140625,0.00033664703369140625,0.003600597381591797,0
1.9091534614562988,0.03601095452904701,-0.012192215770483017,-0.43430572748184204,-0.003136699558102334,0.6886427423111177,-0.013219497166574001,0.0022823496256023645,0.004093734547495842,0.0,0.0,-0.6,0.0,0.0002346038818359375,0.0002346038818359375,0.0030059814453125,0
1.9194293022155762,0.036188021302223206,-0.0121889878064394,-0.4372149705886841,-0.003094072940376574,0.6887597463740147,-0.013408181257545948,0.0028446319047361612,0.004024500027298927,0.0,0.0,-0.6,0.0,0.00023674964904785156,0.00023674964904785156,0.003187894821166992,0
1.9291281700134277,0.03650769218802452,-0.012166745960712433,-0.442975252866745,-0.00298278389813362,0.6889110374433862,-0.013755077496170998,0.003288188250735402,0.003934753593057394,0.0,0.0,-0.6,0.0,0.0001971721649169922,0.0001971721649169922,0.0029070377349853516,0
1.9393606185913086,0.03664796054363251,-0.012146659195423126,-0.4457547962665558,-0.0029407438846459793,0.6890600420753796,-0.014099392108619213,0.00355867319740355,0.003856540424749255,0.0,0.0,-0.6,0.0,0.00022411346435546875,0.00022411346435546875,0.003124237060546875,0
1.9493052959442139,0.0367765799164772,-0.012120841071009636,-0.44846856594085693,-0.002901064181701703,0.6892107212272272,-0.01440565474331379,0.0038207441102713346,0.0037871410604566336,0.0,0.0,-0.6,0.0,0.0002377033233642578,0.0002377033233642578,0.0031566619873046875,0
1.9591233730316162,0.0368942990899086,-0.012089845724403858,-0.4511168599128723,-0.0028668188848588036,0.6893654888579814,-0.014679105952382088,0.004039201885461807,0.00372595083899796,0.0,0.0,-0.6,0.0,0.00019025802612304688,0.00019025802612304688,0.0029630661010742188,0
1.969320297241211,0.03709879145026207,-0.012014815583825111,-0.45622026920318604,-0.0028003192876198805,0.6895594499466142,-0.014970149844884872,0.004250494763255119,0.0036585694178938866,0.0,0.0,-0.6,0.0,0.00024962425231933594,0.00024962425231933594,0.003072500228881836,0
1.9792869091033936,0.037187088280916214,-0.01197060290724039,-0.4586774408817291,-0.002762810965545406,0.6897525324429166,-0.015204394236207008,0.00436342554166913,0.0035975805949419737,0.0,0.0,-0.6,0.0,0.0002460479736328125,0.0002460479736328125,0.003328561782836914,0
1.9892032146453857,0.037265241146087646,-0.011921102181077003,-0.46107226610183716,-0.002725380440918857,0.6899470314521094,-0.015447570011019707,0.004411736037582159,0.003541143611073494,0.0,0.0,-0.6,0.0,0.0002262592315673828,0.0002262592315673828,0.002989530563354492,0
1.9994103908538818,0.03739204630255699,-0.01180940866470337,-0.46578022837638855,-0.002611374480770876,0.6901791331717132,-0.015601742081344128,0.004306674003601074,0.003459112485870719,0.0,0.0,-0.6,0.0,0.0003788471221923828,0.0003788471221923828,0.0040531158447265625,0
2.0091464519500732,0.03744024410843849,-0.011747145093977451,-0.46804216504096985,-0.0025709192612199915,0.6904057897687744,-0.015720002353191376,0.004133282694965601,0.0033865950535982847,0.0,0.0,-0.6,0.0,0.00022411346435546875,0.00022411346435546875,0.0032339096069335938,0
2.0193257331848145,0.037479229271411896,-0.011680230498313904,-0.47024449706077576,-0.002514589438260339,0.6906265316190698,-0.0158455278724432,0.003968643024563789,0.0033148564398288727,0.0,0.0,-0.6,0.0,0.000232696533203125,0.000232696533203125,0.003217935562133789,0
2.0293424129486084,0.03750934079289436,-0.011607756838202477,-0.47238826751708984,-0.002463568171448529,0.6908440111678156,-0.016059579327702522,0.0037425518967211246,0.0032456701155751944,0.0,0.0,-0.6,0.0,0.00027179718017578125,0.00027179718017578125,0.003337860107421875,0
2.039109706878662,0.03752801939845085,-0.011530259624123573,-0.47447383403778076,-0.0024199967785762415,0.6910630900882685,-0.016186363995075226,0.003348731901496649,0.0031806400511413813,0.0,0.0,-0.6,0.0,0.00019741058349609375,0.00019741058349609375,0.002941608428955078,0
2.0491840839385986,0.03753688931465149,-0.011365278623998165,-0.47846901416778564,-0.0023563631172044317,0.6913341582416368,-0.016184868291020393,0.002695875009521842,0.003110678866505623,0.0,0.0,-0.6,0.0,0.00024056434631347656,0.00024056434631347656,0.003033161163330078,0
2.0594494342803955,0.03752709552645683,-0.011277788318693638,-0.48042407631874084,-0.00229601413417955,0.6915951064148893,-0.01610918715596199,0.0020435999613255262,0.003038692520931363,0.0,0.0,-0.6,0.0,0.0002503395080566406,0.0002503395080566406,0.0034127235412597656,0
2.069149971008301,0.03750764578580856,-0.011187277734279633,-0.4823228120803833,-0.002264596292584058,0.6918506409039522,-0.016059232875704765,0.0013854227727279067,0.00297617563046515,0.0,0.0,-0.6,0.0,0.00020313262939453125,0.00020313262939453125,0.0028142929077148438,0
2.079331398010254,0.03747967258095741,-0.01109278667718172,-0.48416537046432495,-0.0022322436234084716,0.6921043965286394,-0.015987122431397438,0.0007930939318612218,0.0029200012795627117,0.0,0.0,-0.6,0.0,0.000225067138671875,0.000225067138671875,0.0031316280364990234,0
2.0891804695129395,0.037398938089609146,-0.010897055268287659,-0.48768648505210876,-0.0021699638307340697,0.6924021627305166,-0.0157768577337265,-1.7325983208138496e-05,0.002856332575902343,0.0,0.0,-0.6,0.0,0.00020551681518554688,0.00020551681518554688,0.0031518936157226562,0
2.0994021892547607,0.03734508529305458,-0.010795168578624725,-0.4893680512905121,-0.0021528840562833307,0.6926845999513299,-0.015570894815027714,-0.0007966203265823424,0.002804873278364539,0.0,0.0,-0.6,0.0,0.0002224445343017578,0.0002224445343017578,0.0031092166900634766,0
2.1093287467956543,0.037848979234695435,-0.010950430296361446,-0.4926777482032776,-0.002129535140997058,0.6928915436552466,-0.015197521075606346,-0.001080754678696394,0.002760788891464472,0.0,0.0,-0.6,0.0,0.0002465248107910156,0.0002465248107910156,0.0033299922943115234,0
2.119260787963867,0.038333453238010406,-0.011097291484475136,-0.49595651030540466,-0.0021149150601972653,0.6930462234321528,-0.014665423892438412,-0.0009730213787406683,0.0027253045700490475,0.0,0.0,-0.6,0.0,0.00020003318786621094,0.00020003318786621094,0.0029916763305664062,0
2.1292948722839355,0.039251506328582764,-0.011371354572474957,-0.502241313457489,-0.002084023357878571,0.6931546980255491,-0.013663982972502708,-0.00022871175315231085,0.0026907019782811403,0.0,0.0,-0.6,0.0,0.000244140625,0.000244140625,0.0032701492309570312,0
2.139310836791992,0.039683811366558075,-0.011498457752168179,-0.5052505135536194,-0.0020505985285690516,0.6932342418857119,-0.012675007805228233,0.0005249307723715901,0.0026541410479694605,0.0,0.0,-0.6,0.0,0.0002391338348388672,0.0002391338348388672,0.003414630889892578,0
2.149155378341675,0.04009855166077614,-0.011618341319262981,-0.508175253868103,-0.002000266615582657,0.6932893545233039,-0.011650222353637218,0.0013064355589449406,0.0026098471134901047,0.0,0.0,-0.6,0.0,0.00020575523376464844,0.00020575523376464844,0.0029506683349609375,0
2.1594431400299072,0.04049638658761978,-0.011732831597328186,-0.5110167860984802,-0.0019425152754380304,0.693331306895171,-0.010557876899838448,0.0020876966882497072,0.002557151485234499,0.0,0.0,-0.6,0.0,0.000278472900390625,0.000278472900390625,0.0034368038177490234,0
2.1691317558288574,0.041246648877859116,-0.011945421807467937,-0.5164535045623779,-0.0018667313564674501,0.6933675850449147,-0.00909626018255949,0.0031399009749293327,0.0024921256117522717,0.0,0.0,-0.6,0.0,0.00019311904907226562,0.00019311904907226562,0.002969026565551758,0
2.1793642044067383,0.041598208248615265,-0.012045664712786674,-0.5190540552139282,-0.0018412532841175042,0.6933951569048049,-0.007672964129596949,0.004061429761350155,0.0024362218100577593,0.0,0.0,-0.6,0.0,0.00023698806762695312,0.00023698806762695312,0.003191709518432617,0
2.1895337104797363,0.04193488135933876,-0.01214160118252039,-0.5216367840766907,-0.0018247671358843337,0.6934221763979124,-0.00635864119976759,0.00494450144469738,0.0023902207612991333,0.0,0.0,-0.6,0.0,0.00025081634521484375,0.00025081634521484375,0.003452301025390625,0
2.199193000793457,0.04256362468004227,-0.01231984980404377,-0.5265695452690125,-0.0017973972381009418,0.6934617193034582,-0.004859142005443573,0.005888669285923243,0.002346940338611603,0.0,0.0,-0.6,0.0,0.00022840499877929688,0.00022840499877929688,0.0030269622802734375,0
2.2093396186828613,0.04285459220409393,-0.012401788495481014,-0.5289217233657837,-0.0017779630402374855,0.6935076401648569,-0.003500669728964567,0.006577746942639351,0.002308238297700882,0.0,0.0,-0.6,0.0,0.00034928321838378906,0.00034928321838378906,0.004655361175537109,0
2.219486713409424,0.04313003271818161,-0.012480022385716438,-0.5311999917030334,-0.001744745038020579,0.6935564330909302,-0.0021713331807404757,0.007106325589120388,0.002267640782520175,0.0,0.0,-0.6,0.0,0.0003941059112548828,0.0003941059112548828,0.00449371337890625,0
2.229185104370117,0.04339013248682022,-0.012555638328194618,-0.5334063172340393,-0.001722269947246831,0.6936090426022123,-0.0009177624597214162,0.007491582073271275,0.0022298332769423723,0.0,0.0,-0.6,0.0,0.0002384185791015625,0.0002384185791015625,0.0030198097229003906,0
2.2394089698791504,0.04386809095740318,-0.012696648016571999,-0.5376074314117432,-0.0016764527695733303,0.6936874384794054,0.000464361539343372,0.007931413128972054,0.002185107208788395,0.0,0.0,-0.6,0.0,0.0002541542053222656,0.0002541542053222656,0.003467082977294922,0
2.2491843700408936,0.04408922791481018,-0.01276105921715498,-0.5396459698677063,-0.001678682067611917,0.6937668895840894,0.0017509155441075563,0.008275073021650314,0.002153653185814619,0.0,0.0,-0.6,0.0,0.00021409988403320312,0.00021409988403320312,0.003129243850708008,0
2.2594048976898193,0.04429810866713524,-0.012823532335460186,-0.5416176319122314,-0.0016622936005514072,0.6938455847959349,0.0029241021256893873,0.008589504286646843,0.0021246285177767277,0.0,0.0,-0.6,0.0,0.00027680397033691406,0.00027680397033691406,0.0032722949981689453,0
2.269303321838379,0.044494591653347015,-0.012881780974566936,-0.5435242056846619,-0.0016267973033634307,0.693925767940555,0.0038651402574032545,0.008804944343864918,0.002090663183480501,0.0,0.0,-0.6,0.0,0.0002589225769042969,0.0002589225769042969,0.003213644027709961,0
2.279322862625122,0.044678863137960434,-0.012936068698763847,-0.5453663468360901,-0.0015733635809623337,0.6940098000024937,0.0047014495357871056,0.00902896374464035,0.0020462365355342627,0.0,0.0,-0.6,0.0,0.0002090930938720703,0.0002090930938720703,0.003094911575317383,0
2.28932785987854,0.04501217603683472,-0.013036438263952732,-0.5488630533218384,-0.0015159833016830996,0.6941176707516337,0.005632385145872831,0.009193521924316883,0.0019925779197365046,0.0,0.0,-0.6,0.0,0.00022721290588378906,0.00022721290588378906,0.0029382705688476562,0
2.2994136810302734,0.04516119137406349,-0.01308334618806839,-0.5505180358886719,-0.0015035136206050174,0.6942348912632836,0.0064386664889752865,0.009288379922509193,0.0019499247428029776,0.0,0.0,-0.6,0.0,0.00027632713317871094,0.00027632713317871094,0.003402233123779297,0
2.3091909885406494,0.04529876261949539,-0.013127564452588558,-0.5521590709686279,-0.0014677656733314867,0.6943544548877408,0.007166929543018341,0.009352920576930046,0.0019062348874285817,0.0,0.0,-0.6,0.0,0.00024080276489257812,0.00024080276489257812,0.0029366016387939453,0
2.319300889968872,0.0454249307513237,-0.013168582692742348,-0.5537387132644653,-0.0014385672900810746,0.6944789566124455,0.007785038091242313,0.009367761202156544,0.0018645324744284153,0.0,0.0,-0.6,0.0,0.000240325927734375,0.000240325927734375,0.0034155845642089844,0
2.329272985458374,0.045643363147974014,-0.013243144378066063,-0.5567176938056946,-0.0013936834673131593,0.6946398162060594,0.008512463420629501,0.00914958119392395,0.0018183953361585736,0.0,0.0,-0.6,0.0,0.0002455711364746094,0.0002455711364746094,0.0031900405883789062,0
2.3392717838287354,0.04573366045951843,-0.013276701793074608,-0.5581188797950745,-0.001387581251107789,0.6947999355183667,0.009175645187497139,0.008851981721818447,0.0017839099746197462,0.0,0.0,-0.6,0.0,0.00023603439331054688,0.00023603439331054688,0.0032503604888916016,0
2.3493432998657227,0.04581226408481598,-0.013309215195477009,-0.5594630241394043,-0.0013592145680057133,0.6949599046492848,0.009769112803041935,0.008587410673499107,0.0017490105237811804,0.0,0.0,-0.6,0.0,0.0002429485321044922,0.0002429485321044922,0.0031032562255859375,0
2.359175205230713,0.04593506455421448,-0.013369202613830566,-0.5619843006134033,-0.0012857439589705575,0.6951531692070403,0.010236183181405067,0.007996626198291779,0.0016982370289042592,0.0,0.0,-0.6,0.0,0.0002167224884033203,0.0002167224884033203,0.003027677536010742,0
2.369236946105957,0.04597871005535126,-0.013395466841757298,-0.5631634593009949,-0.0012512874617014544,0.6953485870987639,0.010609250515699387,0.007426484487950802,0.0016502890503033996,0.0,0.0,-0.6,0.0,0.000240325927734375,0.000240325927734375,0.003038167953491211,0
2.379432439804077,0.04601231589913368,-0.013420488685369492,-0.5643298625946045,-0.0012190537491897767,0.6955445854884565,0.01089499332010746,0.006865992210805416,0.001605224097147584,0.0,0.0,-0.6,0.0,0.0002434253692626953,0.0002434253692626953,0.0032219886779785156,0
2.3892154693603516,0.0460360161960125,-0.013444405980408192,-0.5654419660568237,-0.0011975644982735285,0.6957393181815261,0.011163963004946709,0.006236442364752293,0.0015664245001971722,0.0,0.0,-0.6,0.0,0.0002357959747314453,0.0002357959747314453,0.003047466278076172,0
2.3994839191436768,0.046052493155002594,-0.01346630696207285,-0.5665015578269958,-0.0011708383714865277,0.6959305874258132,0.011327944695949554,0.005522489547729492,0.0015304607804864645,0.0,0.0,-0.6,0.0,0.00029754638671875,0.00029754638671875,0.003458738327026367,0
2.409162759780884,0.046054042875766754,-0.013501320965588093,-0.5684680938720703,-0.0011015063243584038,0.6961625933187265,0.01143514271825552,0.004597784951329231,0.0014811125583946705,0.0,0.0,-0.6,0.0,0.00023174285888671875,0.00023174285888671875,0.003402233123779297,0
2.4194788932800293,0.046040359884500504,-0.013515831902623177,-0.5693750381469727,-0.0010728724515529,0.69639013680482,0.011552500538527966,0.0037198509089648724,0.0014367918483912945,0.0,0.0,-0.6,0.0,0.00044655799865722656,0.00044655799865722656,0.0057125091552734375,0
2.429415225982666,0.04598589614033699,-0.013538120314478874,-0.5710418224334717,-0.0010308954770284083,0.6966553913079356,0.011535555124282837,0.002818131586536765,0.0013914197916164994,0.0,0.0,-0.6,0.0,0.0003254413604736328,0.0003254413604736328,0.0036687850952148438,0
2.439209461212158,0.04594713822007179,-0.013545451685786247,-0.5718043446540833,-0.00103351203090966,0.6969095776811821,0.011367429047822952,0.0020110122859477997,0.0013615530915558338,0.0,0.0,-0.6,0.0,0.00021147727966308594,0.00021147727966308594,0.003010988235473633,0
2.449321746826172,0.045899584889411926,-0.013549753464758396,-0.5725846886634827,-0.001026663121975791,0.6971533729465115,0.01120420079678297,0.0012123574269935489,0.0013390642125159502,0.0,0.0,-0.6,0.0,0.0002639293670654297,0.0002639293670654297,0.003242015838623047,0
2.4592859745025635,0.04584270343184471,-0.013553355820477009,-0.5733175873756409,-0.0010167377208740254,0.6973911759607075,0.011068452149629593,0.0004221623530611396,0.0013205802533775568,0.0,0.0,-0.6,0.0,0.00026988983154296875,0.00026988983154296875,0.003411531448364258,0
2.469165563583374,0.04577600210905075,-0.01355564221739769,-0.5740050077438354,-0.0009898642319880894,0.6976186432124064,0.010940102860331535,-0.0003542035701684654,0.0012985465582460165,0.0,0.0,-0.6,0.0,0.0002231597900390625,0.0002231597900390625,0.002944469451904297,0
2.479370355606079,0.045617811381816864,-0.013559244573116302,-0.5752496123313904,-0.000945445049462759,0.6978823926494431,0.010670194402337074,-0.0013139804359525442,0.0012684446992352605,0.0,0.0,-0.6,0.0,0.00023508071899414062,0.00023508071899414062,0.0033130645751953125,0
2.4894535541534424,0.04552733898162842,-0.013558045960962772,-0.5758053064346313,-0.000900445446299003,0.6981406517650883,0.010445254854857922,-0.0021740347146987915,0.001231278176419437,0.0,0.0,-0.6,0.0,0.0003139972686767578,0.0003139972686767578,0.004187583923339844,0
2.499394655227661,0.045429229736328125,-0.013557182624936104,-0.5763182044029236,-0.0008491161455371007,0.6983886115169731,0.010293209925293922,-0.0029507011640816927,0.0011868043802678585,0.0,0.0,-0.6,0.0,0.0002827644348144531,0.0002827644348144531,0.0033559799194335938,0
2.509352207183838,0.045665375888347626,-0.013400223106145859,-0.5784165263175964,-0.000825545229554966,0.6985686805153329,0.009898754768073559,-0.0034759375266730785,0.001146515249274671,0.0,0.0,-0.6,0.0,0.0002484321594238281,0.0002484321594238281,0.0031785964965820312,0
2.5192813873291016,0.045885246247053146,-0.013243485242128372,-0.5804343819618225,-0.0008024298652454811,0.698703637152104,0.00930742733180523,-0.003847038373351097,0.0011093018110841513,0.0,0.0,-0.6,0.0,0.00018978118896484375,0.00018978118896484375,0.002953767776489258,0
2.5292446613311768,0.04627590626478195,-0.012931589037179947,-0.5843204855918884,-0.0007722853896778235,0.6987951473938734,0.008382508531212807,-0.00422637676820159,0.0010719215497374535,0.0,0.0,-0.6,0.0,0.00022101402282714844,0.00022101402282714844,0.003066539764404297,0
2.5393130779266357,0.04644591733813286,-0.012775381095707417,-0.5861465930938721,-0.0007578276402809204,0.6988631766454128,0.007507840637117624,-0.004529246594756842,0.0010400605387985706,0.0,0.0,-0.6,0.0,0.00025177001953125,0.00025177001953125,0.003422260284423828,0
2.549250602722168,0.04660195857286453,-0.012620114721357822,-0.5878987312316895,-0.0007278554051173853,0.6989090608448498,0.006672400049865246,-0.004668036475777626,0.0010058290790766478,0.0,0.0,-0.6,0.0,0.0002944469451904297,0.0002944469451904297,0.0035812854766845703,0
2.5594820976257324,0.0468737855553627,-0.012311656959354877,-0.5911878347396851,-0.0006692807253783817,0.6989371455252285,0.005470924079418182,-0.004718086216598749,0.000958904274739325,0.0,0.0,-0.6,0.0,0.00027680397033691406,0.00027680397033691406,0.0034003257751464844,0
2.5691208839416504,0.046990420669317245,-0.012155317701399326,-0.5927291512489319,-0.000640791066355205,0.6989538472277357,0.0042382702231407166,-0.004615462385118008,0.000914327334612608,0.0,0.0,-0.6,0.0,0.00019025802612304688,0.00019025802612304688,0.002775430679321289,0
2.5793864727020264,0.04709498584270477,-0.011998005211353302,-0.5942037105560303,-0.0006230792011178887,0.698968045356008,0.003027172526344657,-0.004536886233836412,0.0008761061471886933,0.0,0.0,-0.6,0.0,0.00023484230041503906,0.00023484230041503906,0.00307464599609375,0
2.589562177658081,0.04718558490276337,-0.011839959770441055,-0.5956120491027832,-0.0005810115706942907,0.6989817738847364,0.0018538307631388307,-0.004551179241389036,0.0008334645535796881,0.0,0.0,-0.6,0.0,0.0002238750457763672,0.0002238750457763672,0.0029163360595703125,0
2.599307060241699,0.047328002750873566,-0.011523659341037273,-0.5983144044876099,-0.0005271645466624362,0.6989962844093832,0.00044251972576603293,-0.004517101217061281,0.0007825635839253664,0.0,0.0,-0.6,0.0,0.0002288818359375,0.0002288818359375,0.0030896663665771484,0
2.6093032360076904,0.04738200083374977,-0.01136405672878027,-0.5995702147483826,-0.0004876953965673917,0.6990167786098112,-0.0008313010330311954,-0.004473087843507528,0.0007317289127968252,0.0,0.0,-0.6,0.0,0.00024056434631347656,0.00024056434631347656,0.003131866455078125,0
2.6193625926971436,0.0474248044192791,-0.011203900910913944,-0.6007645130157471,-0.00047317881713689953,0.6990408703564543,-0.001906904741190374,-0.004425643943250179,0.000690487097017467,0.0,0.0,-0.6,0.0,0.00025272369384765625,0.00025272369384765625,0.003309488296508789,0
2.629189968109131,0.04745601490139961,-0.011045044288039207,-0.6018983721733093,-0.00046522231668022046,0.6990714924210474,-0.002836315892636776,-0.004430526867508888,0.0006585182272829115,0.0,0.0,-0.6,0.0,0.0002315044403076172,0.0002315044403076172,0.003045320510864258,0
2.6394240856170654,0.0474824421107769,-0.010726120322942734,-0.603990375995636,-0.0004305151629237359,0.6991212752142193,-0.0039299484342336655,-0.004593912046402693,0.0006228344864211977,0.0,0.0,-0.6,0.0,0.00024199485778808594,0.00024199485778808594,0.003190755844116211,0
2.649143934249878,0.047477368265390396,-0.010568523779511452,-0.604951024055481,-0.00041121245767850056,0.6991751607125938,-0.004832115024328232,-0.004775650799274445,0.0005904337158426642,0.0,0.0,-0.6,0.0,0.00021886825561523438,0.00021886825561523438,0.0030066967010498047,0
2.6593313217163086,0.047461044043302536,-0.010411897674202919,-0.6058574914932251,-0.0004111955262707468,0.6992304110830618,-0.005611789878457785,-0.0049809180200099945,0.0005675181746482849,0.0,0.0,-0.6,0.0,0.00023794174194335938,0.00023794174194335938,0.00327301025390625,0
2.6693129539489746,0.047434188425540924,-0.010255526751279831,-0.6067582368850708,-0.0003910359844474953,0.6992939462425573,-0.006337813101708889,-0.005173831712454557,0.0005435727071017027,0.0,0.0,-0.6,0.0,0.0002658367156982422,0.0002658367156982422,0.0031325817108154297,0
2.679273843765259,0.04734896123409271,-0.00994065310806036,-0.6083954572677612,-0.00033598464277786934,0.699383121538102,-0.00725611113011837,-0.005337590351700783,0.0005054090870544314,0.0,0.0,-0.6,0.0,0.000217437744140625,0.000217437744140625,0.0030755996704101562,0
2.689389228820801,0.047289252281188965,-0.00978220533579588,-0.6091346740722656,-0.00031661700117540287,0.6994749448857043,-0.008097429759800434,-0.005560911260545254,0.0004709929053205997,0.0,0.0,-0.6,0.0,0.00022554397583007812,0.00022554397583007812,0.003064870834350586,0
