time,x,y,z,yaw,throttle,roll_rate,pitch_rate,yaw_rate,x_ref,y_ref,z_ref,yaw_ref,pred_time,nr_time,ctrl_callback_time,metadata
1.1920928955078125e-06,0.011532765813171864,-0.014337267726659775,-0.01592632383108139,0.02269244743669332,0.7103733707372176,0.017199885100126266,0.0032553188502788544,-0.008509666658937931,0.0,0.0,-0.6,0.0,0.015933513641357422,0.015934228897094727,0.08129215240478516,Sim
0.08146953582763672,0.011532765813171864,-0.014337267726659775,-0.01592632383108139,0.02269244743669332,0.7236161499752175,0.027663184329867363,0.00532124238088727,-0.01446643564850092,0.0,0.0,-0.6,0.0,0.0007486343383789062,0.0007488727569580078,0.003609180450439453,Jax
0.08984088897705078,0.011967089027166367,-0.012747282162308693,-0.015595912002027035,0.022651134653440565,0.7340597250796852,0.032996147871017456,0.006895885802805424,-0.018620679154992104,0.0,0.0,-0.6,0.0,0.0006363391876220703,0.0006368160247802734,0.0033740997314453125,1x Speed
0.09989261627197266,0.012002311646938324,-0.01232528779655695,-0.015537419356405735,0.02266533279697674,0.7423187490493133,0.036194898188114166,0.007973616011440754,-0.02153397537767887,0.0,0.0,-0.6,0.0,0.0008559226989746094,0.0008566379547119141,0.0035505294799804688,0OrderHold
0.10990166664123535,0.012020956724882126,-0.01212072093039751,-0.015509124845266342,0.02267733064329727,0.7488694319505208,0.03809988871216774,0.008687860332429409,-0.023577779531478882,0.0,0.0,-0.6,0.0,0.0007314682006835938,0.0007319450378417969,0.0036787986755371094,QuatYawError
0.11976075172424316,0.012040586210787296,-0.011920732446014881,-0.015480832196772099,0.022686179876930033,0.7540731086973761,0.03924259543418884,0.009198909625411034,-0.025011762976646423,0.0,0.0,-0.6,0.0,0.0007779598236083984,0.0007786750793457031,0.00341796875,Normal Wardi
0.12998747825622559,0.01208222284913063,-0.01153399609029293,-0.015427868813276291,0.022676229770975897,0.7582099466331068,0.03962632641196251,0.00960663240402937,-0.026011819019913673,0.0,0.0,-0.6,0.0,0.0008578300476074219,0.000858306884765625,0.003735065460205078,0
0.13979506492614746,0.012107731774449348,-0.011343847028911114,-0.015420041047036648,0.02266603823711078,0.7615080527772216,0.03963853791356087,0.009998788125813007,-0.02670803666114807,0.0,0.0,-0.6,0.0,0.0008478164672851562,0.0008482933044433594,0.003954410552978516,0
0.14985013008117676,0.012135631404817104,-0.011155393905937672,-0.01541078370064497,0.022669259403457084,0.7641389138905851,0.03936921805143356,0.010307456366717815,-0.027196597307920456,0.0,0.0,-0.6,0.0,0.0008215904235839844,0.0008220672607421875,0.003745555877685547,0
0.1600327491760254,0.012162873521447182,-0.010969732888042927,-0.015404037199914455,0.02266079686275382,0.7662154755024871,0.03901421278715134,0.01043421495705843,-0.027535418048501015,0.0,0.0,-0.6,0.0,0.0008897781372070312,0.0008902549743652344,0.003750324249267578,0
0.16983747482299805,0.012216911651194096,-0.010607660748064518,-0.015478365123271942,0.022603841750016805,0.7676284487037064,0.03829429671168327,0.010678364895284176,-0.02775123156607151,0.0,0.0,-0.6,0.0,0.0006234645843505859,0.0006241798400878906,0.0032906532287597656,0
0.18001246452331543,0.012245241552591324,-0.010432207956910133,-0.015601204708218575,0.022574447711233837,0.7685732554022141,0.03756098076701164,0.010911012068390846,-0.027891280129551888,0.0,0.0,-0.6,0.0,0.0008914470672607422,0.0008919239044189453,0.003644227981567383,0
0.18994808197021484,0.012276607565581799,-0.010262752883136272,-0.01579766348004341,0.022522638684675876,0.7691149233559391,0.03669384494423866,0.01106930896639824,-0.027969885617494583,0.0,0.0,-0.6,0.0,0.0008294582366943359,0.0008299350738525391,0.0039501190185546875,0
0.19987988471984863,0.012308178469538689,-0.010096058249473572,-0.01607517898082733,0.022449786953767106,0.7693204961347685,0.03568192198872566,0.011255286633968353,-0.027997588738799095,0.0,0.0,-0.6,0.0,0.0008893013000488281,0.0008897781372070312,0.0038564205169677734,0
0.2098832130432129,0.012370901182293892,-0.00977040734142065,-0.016886889934539795,0.02231062785018531,0.7689893914772492,0.03390073403716087,0.01140813622623682,-0.027964798733592033,0.0,0.0,-0.6,0.0,0.0008225440979003906,0.0008227825164794922,0.003831148147583008,0
0.21974515914916992,0.012402987107634544,-0.009609841741621494,-0.01742827147245407,0.022215816760168643,0.768460239446804,0.03201789781451225,0.011626964434981346,-0.02790629118680954,0.0,0.0,-0.6,0.0,0.0006620883941650391,0.0006625652313232422,0.0033762454986572266,0
0.22980546951293945,0.012435025535523891,-0.009449993260204792,-0.018064627423882484,0.022114699259478864,0.7677681501991186,0.030110690742731094,0.011755815707147121,-0.027827415615320206,0.0,0.0,-0.6,0.0,0.0008103847503662109,0.0008111000061035156,0.0038194656372070312,0
0.24004292488098145,0.012466463260352612,-0.009290888905525208,-0.018796220421791077,0.022018961605211825,0.7669405977343546,0.028165897354483604,0.01187400333583355,-0.027736300602555275,0.0,0.0,-0.6,0.0,0.000858306884765625,0.0008587837219238281,0.0037932395935058594,0
0.2498769760131836,0.012529965490102768,-0.00897168554365635,-0.020550547167658806,0.021780955572265875,0.7657139033768604,0.025582028552889824,0.012141071259975433,-0.02758326753973961,0.0,0.0,-0.6,0.0,0.0006587505340576172,0.0006592273712158203,0.0035190582275390625,0
0.2599296569824219,0.012563291005790234,-0.008813752792775631,-0.021572958678007126,0.02163539516733013,0.7644504757358862,0.023254692554473877,0.012413466349244118,-0.027421560138463974,0.0,0.0,-0.6,0.0,0.0008561611175537109,0.0008568763732910156,0.003684520721435547,0
0.269960880279541,0.012596124783158302,-0.008657545782625675,-0.022690802812576294,0.02145583995355926,0.7631531222790079,0.021147342398762703,0.012591791339218616,-0.02724103070795536,0.0,0.0,-0.6,0.0,0.0008337497711181641,0.0008342266082763672,0.0037882328033447266,0
0.27988338470458984,0.012626797892153263,-0.00850298348814249,-0.023904316127300262,0.021295523607362338,0.7618282891620581,0.019190484657883644,0.01272142305970192,-0.027054542675614357,0.0,0.0,-0.6,0.0,0.0007839202880859375,0.0007841587066650391,0.0034487247467041016,0
0.2898392677307129,0.012654279358685017,-0.008348357863724232,-0.025217989459633827,0.021127808135060818,0.7604802075004399,0.017248841002583504,0.012928844429552555,-0.02686110883951187,0.0,0.0,-0.6,0.0,0.0010488033294677734,0.0010497570037841797,0.004656314849853516,0
0.2997419834136963,0.012682086788117886,-0.008194898255169392,-0.026624495163559914,0.02094842232398945,0.7591169157920242,0.015363579615950584,0.013076993636786938,-0.02665843442082405,0.0,0.0,-0.6,0.0,0.0007135868072509766,0.0007140636444091797,0.003504037857055664,0
0.30994534492492676,0.01273737009614706,-0.007889009080827236,-0.02971087023615837,0.020604719110745403,0.7574544448540691,0.012915202416479588,0.013318612240254879,-0.026387672871351242,0.0,0.0,-0.6,0.0,0.0008120536804199219,0.000812530517578125,0.0035686492919921875,0
0.31984901428222656,0.012766487896442413,-0.0077369315549731255,-0.031388238072395325,0.02042224608299623,0.7558461456360015,0.010666337795555592,0.013556892052292824,-0.026129713281989098,0.0,0.0,-0.6,0.0,0.0008254051208496094,0.0008261203765869141,0.004326820373535156,0
0.32988405227661133,0.012828257866203785,-0.007432391867041588,-0.03499738499522209,0.02009037515979727,0.7540098433273471,0.007955358363687992,0.013972285203635693,-0.025824690237641335,0.0,0.0,-0.6,0.0,0.0007891654968261719,0.0007894039154052734,0.0035953521728515625,0
0.3398561477661133,0.012860830873250961,-0.007279632147401571,-0.03692525252699852,0.019895192141825252,0.7522680402901425,0.005570984911173582,0.014234687201678753,-0.02553798072040081,0.0,0.0,-0.6,0.0,0.0008890628814697266,0.0008895397186279297,0.0039017200469970703,0
0.3499302864074707,0.012894588522613049,-0.00712767755612731,-0.03893357142806053,0.019689374047927227,0.7505998251234244,0.00335481739602983,0.014429549686610699,-0.02526010200381279,0.0,0.0,-0.6,0.0,0.0008153915405273438,0.0008158683776855469,0.0039825439453125,0
0.35980868339538574,0.012928465381264687,-0.006974727381020784,-0.04102041572332382,0.019496987102304082,0.7489951781370728,0.0012413152726367116,0.01464128214865923,-0.024993441998958588,0.0,0.0,-0.6,0.0,0.0008025169372558594,0.0008032321929931641,0.0036292076110839844,0
0.36997556686401367,0.012996084988117218,-0.006665600463747978,-0.0454215481877327,0.019097546727245264,0.7471877374584691,-0.001289626583456993,0.0147929722443223,-0.02465699054300785,0.0,0.0,-0.6,0.0,0.0008795261383056641,0.0008800029754638672,0.0040323734283447266,0
0.37982654571533203,0.01303007174283266,-0.006508807186037302,-0.04773256927728653,0.01893099173640488,0.7454750513764437,-0.0035395915620028973,0.014910670928657055,-0.024359015747904778,0.0,0.0,-0.6,0.0,0.0008053779602050781,0.0008056163787841797,0.0038154125213623047,0
0.38979482650756836,0.013065113686025143,-0.0063515305519104,-0.050115298479795456,0.018725113771180198,0.7438488090292005,-0.005538550671190023,0.015003029257059097,-0.024073228240013123,0.0,0.0,-0.6,0.0,0.0008907318115234375,0.0008914470672607422,0.004594087600708008,0
0.4000101089477539,0.01310017704963684,-0.006193555425852537,-0.05256575718522072,0.01850223981403897,0.7422970081865422,-0.007365108001977205,0.015029465779662132,-0.023789599537849426,0.0,0.0,-0.6,0.0,0.0011653900146484375,0.0011661052703857422,0.004628419876098633,0
0.4098801612854004,0.013171559199690819,-0.005874463822692633,-0.05766039341688156,0.01810891250140746,0.7405679627489975,-0.009440409019589424,0.01513312291353941,-0.023443561047315598,0.0,0.0,-0.6,0.0,0.0006849765777587891,0.0006852149963378906,0.0035467147827148438,0
0.4198901653289795,0.01320711150765419,-0.005714077036827803,-0.060301169753074646,0.017896932307883483,0.7389442025546157,-0.011243009008467197,0.015071813948452473,-0.023121843114495277,0.0,0.0,-0.6,0.0,0.0008342266082763672,0.0008351802825927734,0.0038344860076904297,0
0.42990922927856445,0.013241099193692207,-0.005552153568714857,-0.06301622837781906,0.01767914363920967,0.7374135029959811,-0.01292480994015932,0.01499562244862318,-0.02281496860086918,0.0,0.0,-0.6,0.0,0.0008745193481445312,0.0008752346038818359,0.003930091857910156,0
0.43975400924682617,0.013107463717460632,-0.0055470895022153854,-0.06520122289657593,0.017472061819346976,0.7359833281830446,-0.014373349957168102,0.014836487360298634,-0.02252250164747238,0.0,0.0,-0.6,0.0,0.0007674694061279297,0.0007681846618652344,0.0035941600799560547,0
0.4499390125274658,0.012849555350840092,-0.005521715153008699,-0.0697646215558052,0.017066227796156075,0.7344449502513632,-0.015834815800189972,0.014393280260264874,-0.022165587171912193,0.0,0.0,-0.6,0.0,0.0008778572082519531,0.0008783340454101562,0.0038547515869140625,0
0.45976924896240234,0.012724356725811958,-0.005502345506101847,-0.0721367746591568,0.016879386707998663,0.7330202953710071,-0.017084043473005295,0.013874850235879421,-0.021845681592822075,0.0,0.0,-0.6,0.0,0.0007829666137695312,0.0007836818695068359,0.0037856101989746094,0
0.46979403495788574,0.012601448222994804,-0.005477663595229387,-0.0745668113231659,0.016666996073022994,0.7316916495913615,-0.018216051161289215,0.01336569432169199,-0.021542100235819817,0.0,0.0,-0.6,0.0,0.0008230209350585938,0.0008237361907958984,0.003900766372680664,0
0.4800591468811035,0.012482460588216782,-0.005447529722005129,-0.07705208659172058,0.016461020042199827,0.7304404704733506,-0.019239628687500954,0.012905923649668694,-0.021252352744340897,0.0,0.0,-0.6,0.0,0.0009024143218994141,0.0009031295776367188,0.003989458084106445,0
0.48982834815979004,0.012252885848283768,-0.005377612076699734,-0.08218449354171753,0.016003672036097844,0.7290756901513877,-0.020109836012125015,0.012244749814271927,-0.020878024399280548,0.0,0.0,-0.6,0.0,0.0006508827209472656,0.0006511211395263672,0.003664255142211914,0
0.4998748302459717,0.012142963707447052,-0.005338272079825401,-0.08483783155679703,0.015808713444950075,0.7278171975140406,-0.020717855542898178,0.011711579747498035,-0.02054288424551487,0.0,0.0,-0.6,0.0,0.0008313655853271484,0.0008318424224853516,0.0037839412689208984,0
0.5098176002502441,0.012036425992846489,-0.005296109709888697,-0.08753395080566406,0.015592440666095112,0.7266458582730576,-0.021180134266614914,0.011223836801946163,-0.020227184519171715,0.0,0.0,-0.6,0.0,0.0007100105285644531,0.0007102489471435547,0.0036749839782714844,0
0.5197494029998779,0.011933495290577412,-0.005249159410595894,-0.09027290344238281,0.015394297819111523,0.725541110423945,-0.02157864347100258,0.010866397060453892,-0.019931891933083534,0.0,0.0,-0.6,0.0,0.0007138252258300781,0.0007143020629882812,0.0033140182495117188,0
0.5299804210662842,0.01173721719533205,-0.005142771173268557,-0.09586986154317856,0.01500236233859598,0.7243460665885415,-0.021878501400351524,0.010455749928951263,-0.01957820914685726,0.0,0.0,-0.6,0.0,0.0008528232574462891,0.0008540153503417969,0.003914833068847656,0
0.5397253036499023,0.011643990874290466,-0.00508498027920723,-0.09872353821992874,0.014808620262845329,0.7232343226566784,-0.022039631381630898,0.0100804278627038,-0.019257979467511177,0.0,0.0,-0.6,0.0,0.0006906986236572266,0.0006914138793945312,0.003406047821044922,0
0.5498397350311279,0.011553173884749413,-0.0050240433774888515,-0.10161200910806656,0.014611727191330009,0.7221956123697085,-0.02214917540550232,0.009672543965280056,-0.018959982320666313,0.0,0.0,-0.6,0.0,0.0007784366607666016,0.0007789134979248047,0.0037393569946289062,0
0.5599374771118164,0.011463572271168232,-0.004958354402333498,-0.10453224182128906,0.014418047908336463,0.7212225642296977,-0.022274477407336235,0.00924282893538475,-0.018678754568099976,0.0,0.0,-0.6,0.0,0.0008585453033447266,0.0008592605590820312,0.0035538673400878906,0
0.5697932243347168,0.011291359551250935,-0.00481427414342761,-0.11047166585922241,0.01406844992461983,0.7201594357196655,-0.022237010300159454,0.008759638294577599,-0.018350796774029732,0.0,0.0,-0.6,0.0,0.0007169246673583984,0.0007174015045166016,0.0036618709564208984,0
0.5799760818481445,0.011209772899746895,-0.004736743867397308,-0.11348883807659149,0.013903229688658036,0.7191723338223771,-0.022219190374016762,0.00830348115414381,-0.018059268593788147,0.0,0.0,-0.6,0.0,0.0008223056793212891,0.0008227825164794922,0.003747224807739258,0
0.5897958278656006,0.011129498481750488,-0.00465529877692461,-0.11653102934360504,0.013723134260480874,0.7182512603106701,-0.022139176726341248,0.007873757742345333,-0.017787663266062737,0.0,0.0,-0.6,0.0,0.0007531642913818359,0.0007534027099609375,0.0036995410919189453,0
0.5998530387878418,0.011051607318222523,-0.004570163320749998,-0.11959586292505264,0.013530294255433114,0.7173878745736323,-0.022053338587284088,0.0074877445586025715,-0.01752522401511669,0.0,0.0,-0.6,0.0,0.0007581710815429688,0.0007588863372802734,0.0035474300384521484,0
0.6098823547363281,0.010902076959609985,-0.004387768916785717,-0.12578777968883514,0.013187138346397728,0.7164470665634117,-0.021876515820622444,0.006987299770116806,-0.01721283420920372,0.0,0.0,-0.6,0.0,0.0008196830749511719,0.000820159912109375,0.003720998764038086,0
0.6197216510772705,0.01082934532314539,-0.00429264223203063,-0.1289144605398178,0.01300274042794503,0.7155722684103475,-0.021669642999768257,0.0064744651317596436,-0.016925010830163956,0.0,0.0,-0.6,0.0,0.0006279945373535156,0.0006284713745117188,0.003423929214477539,0
0.6297693252563477,0.010755798779428005,-0.004194578621536493,-0.13205839693546295,0.012844948320291564,0.7147571340589783,-0.021408358588814735,0.0059855543076992035,-0.01666436344385147,0.0,0.0,-0.6,0.0,0.0008249282836914062,0.0008254051208496094,0.003904581069946289,0
0.63999342918396,0.010684660635888577,-0.004094497300684452,-0.13521838188171387,0.012694369504474844,0.7139912852727601,-0.021158592775464058,0.005620207171887159,-0.016425443813204765,0.0,0.0,-0.6,0.0,0.00084686279296875,0.0008473396301269531,0.003651142120361328,0
0.6498408317565918,0.010548846796154976,-0.00388506893068552,-0.1416005790233612,0.01239748278824413,0.7131636136104468,-0.020880350843071938,0.0052379220724105835,-0.016146866604685783,0.0,0.0,-0.6,0.0,0.00067901611328125,0.0006797313690185547,0.003381967544555664,0
0.659912109375,0.010484152473509312,-0.0037757859099656343,-0.1448090374469757,0.012249121544749005,0.7123986475247235,-0.0205838643014431,0.004943948704749346,-0.015896227210760117,0.0,0.0,-0.6,0.0,0.0008471012115478516,0.0008475780487060547,0.0036034584045410156,0
0.6698236465454102,0.0104213897138834,-0.0036642784252762794,-0.14802782237529755,0.012079505226954742,0.7116827043247872,-0.020186442881822586,0.004684795159846544,-0.015657173469662666,0.0,0.0,-0.6,0.0,0.0008962154388427734,0.0008969306945800781,0.004103899002075195,0
0.6798944473266602,0.010361324064433575,-0.0035515455529093742,-0.15125533938407898,0.011937636501031903,0.7110149890723352,-0.01968393474817276,0.004502128344029188,-0.015436635352671146,0.0,0.0,-0.6,0.0,0.0007605552673339844,0.0007610321044921875,0.0033998489379882812,0
0.689873456954956,0.010246851481497288,-0.0033221598714590073,-0.1577313244342804,0.011659362821358002,0.7102896087202403,-0.019021380692720413,0.004162117373198271,-0.01517790649086237,0.0,0.0,-0.6,0.0,0.0008511543273925781,0.0008518695831298828,0.0037653446197509766,0
0.6997666358947754,0.010189801454544067,-0.0032039748039096594,-0.1609792858362198,0.011505915086597483,0.7096151091722535,-0.018535541370511055,0.003845376893877983,-0.01493925228714943,0.0,0.0,-0.6,0.0,0.0007030963897705078,0.0007035732269287109,0.0034875869750976562,0
0.7099184989929199,0.010134868323802948,-0.003082756418734789,-0.16423214972019196,0.011360173821654338,0.7089881025083126,-0.018031030893325806,0.0035983091220259666,-0.014717541635036469,0.0,0.0,-0.6,0.0,0.0008301734924316406,0.0008306503295898438,0.0035436153411865234,0
0.7201886177062988,0.010082167573273182,-0.0029610253404825926,-0.16750416159629822,0.011235802915207182,0.7083971796091325,-0.017495732754468918,0.003413071623072028,-0.014515705406665802,0.0,0.0,-0.6,0.0,0.0012314319610595703,0.001232147216796875,0.0057446956634521484,0
0.7299177646636963,0.009984421543776989,-0.0027136586140841246,-0.17405350506305695,0.01095626576705883,0.7077625734087957,-0.01684614084661007,0.003304955316707492,-0.014269593171775341,0.0,0.0,-0.6,0.0,0.0011000633239746094,0.0011005401611328125,0.00565648078918457,0
0.7399005889892578,0.009938712231814861,-0.0025884979404509068,-0.1773282289505005,0.010803208788551951,0.7071747022795004,-0.016152799129486084,0.0032029259018599987,-0.014039917849004269,0.0,0.0,-0.6,0.0,0.0009629726409912109,0.0009634494781494141,0.003893613815307617,0
0.7499179840087891,0.009894685819745064,-0.0024636085145175457,-0.180601567029953,0.0106768310629835,0.706630685320116,-0.015458958223462105,0.0031021139584481716,-0.013831754215061665,0.0,0.0,-0.6,0.0,0.0008058547973632812,0.0008063316345214844,0.0037941932678222656,0
0.7598309516906738,0.009853304363787174,-0.0023373502772301435,-0.183872789144516,0.010545152125488198,0.7061191754325162,-0.014802559278905392,0.003162386827170849,-0.01363665983080864,0.0,0.0,-0.6,0.0,0.000797271728515625,0.0007977485656738281,0.003436565399169922,0
0.7698869705200195,0.009780454449355602,-0.0020829320419579744,-0.19041171669960022,0.010236066824727455,0.7055581139806115,-0.014099027961492538,0.0032728631049394608,-0.01338418759405613,0.0,0.0,-0.6,0.0,0.0008478164672851562,0.0008482933044433594,0.003711700439453125,0
0.7797951698303223,0.009747141972184181,-0.001954631181433797,-0.19367615878582,0.01012024759857985,0.7050404104763934,-0.013453220017254353,0.003411094658076763,-0.01316402480006218,0.0,0.0,-0.6,0.0,0.0006515979766845703,0.0006520748138427734,0.003422975540161133,0
0.7899336814880371,0.009715552441775799,-0.0018262772355228662,-0.19697873294353485,0.009998052439810277,0.7045555061647394,-0.012768552638590336,0.003470842959359288,-0.01296408660709858,0.0,0.0,-0.6,0.0,0.0007910728454589844,0.0007922649383544922,0.0036208629608154297,0
0.7999680042266846,0.009684155695140362,-0.0016990200383588672,-0.20027489960193634,0.009858841472755875,0.7041025665299172,-0.01206942554563284,0.003453209763392806,-0.012771925888955593,0.0,0.0,-0.6,0.0,0.0008490085601806641,0.0008497238159179688,0.0037386417388916016,0
0.8097324371337891,0.00965365581214428,-0.001572680426761508,-0.203563392162323,0.009752691060297662,0.7036755797583998,-0.011321640573441982,0.003494459204375744,-0.01259760744869709,0.0,0.0,-0.6,0.0,0.0006990432739257812,0.0006995201110839844,0.0036509037017822266,0
0.8198668956756592,0.009595268405973911,-0.001324565731920302,-0.21011385321617126,0.009486912096587218,0.7032186034947149,-0.010311704128980637,0.003461186308413744,-0.012375917285680771,0.0,0.0,-0.6,0.0,0.0008268356323242188,0.0008273124694824219,0.0035283565521240234,0
0.8298337459564209,0.009566470049321651,-0.0012012558290734887,-0.21337303519248962,0.009376380663545647,0.7028009949545404,-0.009423941373825073,0.0033840821124613285,-0.012179285287857056,0.0,0.0,-0.6,0.0,0.0008220672607421875,0.0008225440979003906,0.003823518753051758,0
0.8398151397705078,0.009523219428956509,-0.0011427118442952633,-0.2165364772081375,0.009262569655863355,0.7024157666073119,-0.008455469273030758,0.003282439662143588,-0.011998962610960007,0.0,0.0,-0.6,0.0,0.0007216930389404297,0.0007221698760986328,0.0034220218658447266,0
0.8500127792358398,0.009433520026504993,-0.0010290950303897262,-0.22283686697483063,0.008977081964117692,0.7020059226713977,-0.007086183410137892,0.003064866643399,-0.011765679344534874,0.0,0.0,-0.6,0.0,0.0009038448333740234,0.000904083251953125,0.004276275634765625,0
0.8598294258117676,0.0093888770788908,-0.0009749468299560249,-0.22600123286247253,0.008862990795874005,0.7016311495943756,-0.005746806040406227,0.002816125750541687,-0.011559597216546535,0.0,0.0,-0.6,0.0,0.0008504390716552734,0.0008509159088134766,0.003812074661254883,0
0.86993408203125,0.009343803860247135,-0.0009219680214300752,-0.2291545867919922,0.008743594495498216,0.7012822536410002,-0.0045293765142560005,0.0025207381695508957,-0.011370565742254257,0.0,0.0,-0.6,0.0,0.0008490085601806641,0.0008492469787597656,0.0037288665771484375,0
0.8799266815185547,0.009296807460486889,-0.00086802220903337,-0.23229588568210602,0.008631585406854016,0.7009618046448907,-0.0034986590035259724,0.0020869728177785873,-0.011196240782737732,0.0,0.0,-0.6,0.0,0.0008425712585449219,0.0008432865142822266,0.0037174224853515625,0
0.8899056911468506,0.009199890308082104,-0.0007567839929834008,-0.2385338544845581,0.008409772318676567,0.7006343578688089,-0.0023944585118442774,0.001624964876100421,-0.010991033166646957,0.0,0.0,-0.6,0.0,0.0008413791656494141,0.0008416175842285156,0.0038881301879882812,0
0.8999054431915283,0.009151210077106953,-0.000702535267919302,-0.2416297048330307,0.008299997950436866,0.7003379364368529,-0.0013585512060672045,0.0012702273670583963,-0.010806222446262836,0.0,0.0,-0.6,0.0,0.0008490085601806641,0.0008497238159179688,0.0037734508514404297,0
0.909874677658081,0.009102274663746357,-0.0006484896875917912,-0.24470975995063782,0.008212570848626408,0.7000667940865938,-0.0005123090813867748,0.0009146718075498939,-0.010644069872796535,0.0,0.0,-0.6,0.0,0.0008544921875,0.0008549690246582031,0.003952980041503906,0
0.9198358058929443,0.00905307475477457,-0.0005945994635112584,-0.24777506291866302,0.008117550257116425,0.6998097430014215,0.0003510146343614906,0.0005651920801028609,-0.010494929738342762,0.0,0.0,-0.6,0.0,0.0008075237274169922,0.0008080005645751953,0.0036163330078125,0
0.9299166202545166,0.00895328726619482,-0.00048723124200478196,-0.2538681924343109,0.007882288157495556,0.6995343175874316,0.0012352652847766876,0.00010274517262587324,-0.010302308946847916,0.0,0.0,-0.6,0.0,0.0008389949798583984,0.0008394718170166016,0.004074573516845703,0
0.939746618270874,0.0089045949280262,-0.0004332530661486089,-0.2568930685520172,0.00776058085380643,0.6992777599182902,0.002048447960987687,-0.00014598651614505798,-0.010121834464371204,0.0,0.0,-0.6,0.0,0.0007340908050537109,0.0007348060607910156,0.003615140914916992,0
0.949899435043335,0.008858290500938892,-0.00037993740988895297,-0.2599030137062073,0.007667506337620621,0.6990386802276846,0.0027987619396299124,-0.0003047488571610302,-0.0099605992436409,0.0,0.0,-0.6,0.0,0.0011153221130371094,0.0011167526245117188,0.004447460174560547,0
0.959885835647583,0.008813805878162384,-0.00032724597258493304,-0.262896329164505,0.00758406393364638,0.6988196370270325,0.003432730445638299,-0.0004245521849952638,-0.009816443547606468,0.0,0.0,-0.6,0.0,0.0009019374847412109,0.0009028911590576172,0.003780364990234375,0
0.9698922634124756,0.008729701861739159,-0.00022237244411371648,-0.2688286006450653,0.007395272723827638,0.6985940379817521,0.004176747053861618,-0.00040565477684140205,-0.009644737467169762,0.0,0.0,-0.6,0.0,0.0007956027984619141,0.0007960796356201172,0.0037734508514404297,0
0.9799795150756836,0.008690856397151947,-0.0001712585799396038,-0.27176713943481445,0.007292948903057312,0.6983906468640524,0.004743401426821947,-0.00031822832534089684,-0.00948617234826088,0.0,0.0,-0.6,0.0,0.0008563995361328125,0.0008568763732910156,0.003522157669067383,0
0.9899320602416992,0.008653330616652966,-0.00012002556468360126,-0.27468612790107727,0.007193908013261493,0.6982076797425593,0.005159467924386263,-0.00023398970370180905,-0.009338036179542542,0.0,0.0,-0.6,0.0,0.0008084774017333984,0.0008089542388916016,0.0037856101989746094,0
0.9997475147247314,0.008615733124315739,-6.944248161744326e-05,-0.2775859236717224,0.007098645226801937,0.6980392377571419,0.005558202974498272,-0.00025403042673133314,-0.009198617190122604,0.0,0.0,-0.6,0.0,0.0007283687591552734,0.0007288455963134766,0.003331899642944336,0
1.0099635124206543,0.008542315103113651,2.9085000278428197e-05,-0.28332963585853577,0.006946482721635153,0.6978548975220996,0.005986141040921211,-0.00019398389849811792,-0.009043962694704533,0.0,0.0,-0.6,0.0,0.0008385181427001953,0.0008389949798583984,0.0036673545837402344,0
1.019716739654541,0.008506220765411854,7.697649562032893e-05,-0.2861739695072174,0.006840644694468211,0.697687987248147,0.006406746804714203,-0.00018099024600815028,-0.008896015584468842,0.0,0.0,-0.6,0.0,0.0005776882171630859,0.0005781650543212891,0.003216266632080078,0
1.0298717021942139,0.008470733650028706,0.00012412019714247435,-0.2889987826347351,0.0067527317100454665,0.6975356183268557,0.0067494092509150505,-0.00010589464363874868,-0.008759485557675362,0.0,0.0,-0.6,0.0,0.0007700920104980469,0.00077056884765625,0.003599882125854492,0
1.039912223815918,0.00843649823218584,0.00017190939979627728,-0.29180341958999634,0.006681920336027513,0.6973993275015975,0.006971288006752729,-5.051946209277958e-05,-0.00863736029714346,0.0,0.0,-0.6,0.0,0.0008254051208496094,0.0008256435394287109,0.00371551513671875,0
1.0497736930847168,0.00837009772658348,0.00026050908491015434,-0.2973521947860718,0.006496386268471858,0.6972558403674444,0.007497963961213827,0.00015335797797888517,-0.008482296951115131,0.0,0.0,-0.6,0.0,0.0006580352783203125,0.0006585121154785156,0.003292083740234375,0
1.0599186420440674,0.008340145461261272,0.00030072196386754513,-0.30009710788726807,0.006388884267014474,0.6971244805549508,0.007890479639172554,0.00042596220737323165,-0.008333439007401466,0.0,0.0,-0.6,0.0,0.0008111000061035156,0.0008115768432617188,0.003582477569580078,0
1.069871425628662,0.008311983197927475,0.00033980392618104815,-0.3027937710285187,0.006293059630669236,0.697003960153273,0.008207944221794605,0.0006734670023433864,-0.008193304762244225,0.0,0.0,-0.6,0.0,0.0010409355163574219,0.0010416507720947266,0.003901243209838867,0
1.079857349395752,0.008285877294838428,0.0003779421094805002,-0.3054715394973755,0.006206787910706633,0.6968925978449041,0.008461506105959415,0.0010040589841082692,-0.008062859065830708,0.0,0.0,-0.6,0.0,0.0007030963897705078,0.0007035732269287109,0.003361940383911133,0
1.0900352001190186,0.008245845325291157,0.0004520172660704702,-0.3107686936855316,0.006009777273711586,0.6967763958602187,0.008658582344651222,0.0017108921892940998,-0.007897667586803436,0.0,0.0,-0.6,0.0,0.0010833740234375,0.0010840892791748047,0.0042934417724609375,0
1.0997331142425537,0.008230593055486679,0.00048762530786916614,-0.313389390707016,0.0059181864317226175,0.6966693558183344,0.008840257301926613,0.0022578714415431023,-0.00774768739938736,0.0,0.0,-0.6,0.0,0.0006492137908935547,0.0006496906280517578,0.003421783447265625,0
1.1097805500030518,0.008216476999223232,0.0005217268480919302,-0.31598973274230957,0.005823370986162223,0.6965774444459246,0.009007158689200878,0.0027347016148269176,-0.007607145234942436,0.0,0.0,-0.6,0.0,0.0007791519165039062,0.0007793903350830078,0.00360107421875,0
1.1199827194213867,0.008204320445656776,0.0005542438593693078,-0.3185690641403198,0.005746638172143613,0.6964959588723599,0.009192558005452156,0.0031484023202210665,-0.007479991298168898,0.0,0.0,-0.6,0.0,0.0008618831634521484,0.0008623600006103516,0.0037310123443603516,0
1.129838466644287,0.008193770423531532,0.000584733672440052,-0.3211403489112854,0.005677321800616107,0.6964277666555831,0.009402289055287838,0.003562172641977668,-0.007364989724010229,0.0,0.0,-0.6,0.0,0.0006899833679199219,0.0006923675537109375,0.0034151077270507812,0
1.1398131847381592,0.008176322095096111,0.000638241006527096,-0.3262145519256592,0.005509329341412404,0.6963675737371531,0.009731222875416279,0.0038512141909450293,-0.007221491076052189,0.0,0.0,-0.6,0.0,0.0008041858673095703,0.000804901123046875,0.0035979747772216797,0
1.1498045921325684,0.008169349282979965,0.0006622051005251706,-0.3287185728549957,0.005414122932144699,0.6963142046328195,0.009972870349884033,0.004165525548160076,-0.00708533963188529,0.0,0.0,-0.6,0.0,0.0008897781372070312,0.0008904933929443359,0.0039179325103759766,0
1.1597976684570312,0.008165335282683372,0.0006859712302684784,-0.3312004506587982,0.005341409863016762,0.6962714675285055,0.010070358403027058,0.004553738981485367,-0.006962766405194998,0.0,0.0,-0.6,0.0,0.0007641315460205078,0.0007643699645996094,0.0034685134887695312,0
1.1699328422546387,0.008161734789609909,0.0007328149513341486,-0.3360942006111145,0.005213801515641429,0.6962399135938866,0.010118156671524048,0.004882126115262508,-0.006829111836850643,0.0,0.0,-0.6,0.0,0.001135110855102539,0.0011358261108398438,0.004875898361206055,0
1.179765224456787,0.008161733858287334,0.0007551052840426564,-0.33850666880607605,0.00515161892826829,0.6962147166436953,0.010178284719586372,0.0052182055078446865,-0.006712235510349274,0.0,0.0,-0.6,0.0,0.0006773471832275391,0.0006783008575439453,0.0035583972930908203,0
1.189892292022705,0.008164284750819206,0.0007755277911201119,-0.3408970236778259,0.0050840993117344975,0.6961924625993391,0.010219153948128223,0.005611006636172533,-0.006605102214962244,0.0,0.0,-0.6,0.0,0.0007996559143066406,0.0008001327514648438,0.003716707229614258,0
1.19996976852417,0.00817178376019001,0.0007964192773215473,-0.34328755736351013,0.0050250800656008125,0.6961745647155528,0.01011647004634142,0.005891611333936453,-0.006507976446300745,0.0,0.0,-0.6,0.0,0.0008699893951416016,0.0008707046508789062,0.0037059783935546875,0
1.209871530532837,0.008179566822946072,0.0008182454621419311,-0.345655620098114,0.004965858292396608,0.6961585112275068,0.009938403032720089,0.006079124286770821,-0.0064177801832556725,0.0,0.0,-0.6,0.0,0.0006985664367675781,0.0006988048553466797,0.003397703170776367,0
1.2198619842529297,0.00819617509841919,0.0008620198350399733,-0.3503197133541107,0.004859189983457368,0.6961604345230928,0.009624871425330639,0.006219653878360987,-0.006314642261713743,0.0,0.0,-0.6,0.0,0.0008304119110107422,0.0008311271667480469,0.003536701202392578,0
1.2298622131347656,0.00820552185177803,0.0008839868823997676,-0.35261449217796326,0.004798947494379522,0.6961684809134309,0.009234678000211716,0.006248749792575836,-0.006219855044037104,0.0,0.0,-0.6,0.0,0.0008230209350585938,0.0008234977722167969,0.0038022994995117188,0
1.2397189140319824,0.008206812664866447,0.0010129609145224094,-0.3550683557987213,0.004720672803504105,0.696175820720524,0.0087434658780694,0.006270375102758408,-0.006124150939285755,0.0,0.0,-0.6,0.0,0.0006361007690429688,0.0006365776062011719,0.0032033920288085938,0
1.2499444484710693,0.008209615014493465,0.0011403843527659774,-0.35749468207359314,0.004652446049178188,0.6961791569741071,0.008143075741827488,0.0063314069993793964,-0.0060315728187561035,0.0,0.0,-0.6,0.0,0.0008461475372314453,0.0008466243743896484,0.003579378128051758,0
1.2597804069519043,0.008217988535761833,0.0013874393189325929,-0.36226290464401245,0.004519272292844989,0.696188027415635,0.0074980854988098145,0.0063194697722792625,-0.0059168278239667416,0.0,0.0,-0.6,0.0,0.0007927417755126953,0.0007932186126708984,0.004094839096069336,0
1.2697715759277344,0.008223820477724075,0.0015061383601278067,-0.3646272122859955,0.0044382669847758596,0.6961973294981589,0.006854157894849777,0.0063441540114581585,-0.005806129891425371,0.0,0.0,-0.6,0.0,0.00089263916015625,0.0008931159973144531,0.004090309143066406,0
1.2800917625427246,0.00823244545608759,0.001623466843739152,-0.36696523427963257,0.0043461023131685685,0.6961991742020334,0.006189285311847925,0.006467536557465792,-0.005694079212844372,0.0,0.0,-0.6,0.0,0.0010390281677246094,0.0010399818420410156,0.00446629524230957,0
1.2897779941558838,0.008243745192885399,0.0017396241892129183,-0.36927738785743713,0.004265676702568661,0.6961985854672188,0.005533283110707998,0.006597477477043867,-0.005585484206676483,0.0,0.0,-0.6,0.0,0.0007712841033935547,0.0007719993591308594,0.004198312759399414,0
1.2999351024627686,0.00827065110206604,0.0019696427043527365,-0.3738236725330353,0.004132676450519572,0.6961974472453426,0.0045955488458275795,0.006785814184695482,-0.005459592677652836,0.0,0.0,-0.6,0.0,0.0009293556213378906,0.0009298324584960938,0.0036771297454833984,0
1.3098204135894775,0.008286664262413979,0.0020827699918299913,-0.37605828046798706,0.00408536359130478,0.6961956810357615,0.003792507341131568,0.006866519805043936,-0.0053537264466285706,0.0,0.0,-0.6,0.0,0.0007767677307128906,0.0007774829864501953,0.003704071044921875,0
1.3198611736297607,0.008302946574985981,0.0021940404549241066,-0.37826719880104065,0.00404558043739275,0.6961959557797315,0.003059938782826066,0.00693257013335824,-0.005264701321721077,0.0,0.0,-0.6,0.0,0.0009887218475341797,0.0009891986846923828,0.004028797149658203,0
1.3299424648284912,0.008320791646838188,0.0023034056648612022,-0.38044989109039307,0.0039962743013331635,0.6962006656616158,0.002378016710281372,0.007037236355245113,-0.005183893721550703,0.0,0.0,-0.6,0.0,0.0008068084716796875,0.0008091926574707031,0.0037131309509277344,0
1.3397130966186523,0.008358991704881191,0.0025180273223668337,-0.3847440779209137,0.003891257935857119,0.6962106740681137,0.00143361312802881,0.00718028424307704,-0.0050879474729299545,0.0,0.0,-0.6,0.0,0.0006299018859863281,0.0006301403045654297,0.003295421600341797,0
1.3499317169189453,0.00838109664618969,0.0026257650461047888,-0.38685646653175354,0.003850729752771706,0.6962238614234064,0.0005871211760677397,0.007364016491919756,-0.005005586892366409,0.0,0.0,-0.6,0.0,0.0008301734924316406,0.0008306503295898438,0.0035865306854248047,0
1.3599815368652344,0.00840532872825861,0.0027326166164129972,-0.3889431953430176,0.003812408210393949,0.6962386576900169,-0.0001943942770594731,0.007541163358837366,-0.004933563992381096,0.0,0.0,-0.6,0.0,0.0008387565612792969,0.0008392333984375,0.0036115646362304688,0
1.3698852062225342,0.008431867696344852,0.002838881453499198,-0.3910049796104431,0.003742190164381873,0.6962541208684574,-0.0008826983394101262,0.007766990456730127,-0.004856816027313471,0.0,0.0,-0.6,0.0,0.0006110668182373047,0.0006115436553955078,0.003294706344604492,0
1.3800029754638672,0.008460539393126965,0.0029439765494316816,-0.39304253458976746,0.0036826488781101317,0.6962684456262221,-0.001439460669644177,0.008042541332542896,-0.004780764225870371,0.0,0.0,-0.6,0.0,0.0008518695831298828,0.0008521080017089844,0.003768444061279297,0
1.3899247646331787,0.008523878641426563,0.0031487804371863604,-0.39704644680023193,0.0035975098965311926,0.6962850855692326,-0.0020059586968272924,0.008332440629601479,-0.00469560083001852,0.0,0.0,-0.6,0.0,0.0012793540954589844,0.0012805461883544922,0.004926204681396484,0
1.399745225906372,0.00855858251452446,0.003249732544645667,-0.3990134000778198,0.003543317739894113,0.6963009795297253,-0.002564286347478628,0.008606445044279099,-0.0046156649477779865,0.0,0.0,-0.6,0.0,0.0007183551788330078,0.0007185935974121094,0.004043102264404297,0
1.4098539352416992,0.008627699688076973,0.00345251034013927,-0.4029162526130676,0.0034380876065384695,0.6963305689222284,-0.0033194771967828274,0.008684379979968071,-0.004520248156040907,0.0,0.0,-0.6,0.0,0.001085042953491211,0.0010857582092285156,0.004224538803100586,0
1.4197463989257812,0.008662271313369274,0.003552881767973304,-0.4048474431037903,0.0033754395752705136,0.6963665534789868,-0.003987391944974661,0.008694646880030632,-0.004429963417351246,0.0,0.0,-0.6,0.0,0.0006146430969238281,0.0006148815155029297,0.003286123275756836,0
1.4297523498535156,0.008698038756847382,0.0036528927739709616,-0.4067520201206207,0.003325605704705027,0.6964079906053179,-0.004614120349287987,0.008767453953623772,-0.004348076414316893,0.0,0.0,-0.6,0.0,0.0007948875427246094,0.0007956027984619141,0.003642559051513672,0
1.4399776458740234,0.00873587466776371,0.003752063261345029,-0.408630907535553,0.003273714590228611,0.6964459727439144,-0.005183550529181957,0.008883984759449959,-0.004271296318620443,0.0,0.0,-0.6,0.0,0.0008985996246337891,0.0008995532989501953,0.003915071487426758,0
1.4498577117919922,0.008817785419523716,0.003951424267143011,-0.4123198390007019,0.0032199374649115944,0.696485287058085,-0.00577482208609581,0.009008620865643024,-0.004197383765131235,0.0,0.0,-0.6,0.0,0.0006258487701416016,0.0006260871887207031,0.00328826904296875,0
1.4599151611328125,0.008859419263899326,0.004050215240567923,-0.41412824392318726,0.003197860175524186,0.6965286796468788,-0.006180270574986935,0.008961211889982224,-0.0041373660787940025,0.0,0.0,-0.6,0.0,0.0008778572082519531,0.0008783340454101562,0.003836393356323242,0
1.4698262214660645,0.008901637978851795,0.004147452302277088,-0.4159108102321625,0.0031726511253828333,0.6965770913728313,-0.006402427796274424,0.008964012376964092,-0.004085900727659464,0.0,0.0,-0.6,0.0,0.0009369850158691406,0.0009379386901855469,0.0038909912109375,0
1.4798336029052734,0.008945940993726254,0.004242986440658569,-0.417668879032135,0.003140045761742127,0.6966245194569397,-0.006615573540329933,0.009006659500300884,-0.004037647508084774,0.0,0.0,-0.6,0.0,0.0006985664367675781,0.0006990432739257812,0.003289937973022461,0
1.489945650100708,0.009033666923642159,0.00443247752264142,-0.4211203455924988,0.0030329804499177864,0.6966875563858143,-0.006802478805184364,0.008973821066319942,-0.0039637209847569466,0.0,0.0,-0.6,0.0,0.0008831024169921875,0.0008835792541503906,0.003981590270996094,0
1.4997625350952148,0.00907750241458416,0.004526324570178986,-0.422810435295105,0.002992535394861597,0.6967450188109117,-0.007018284406512976,0.008861210197210312,-0.0038968054577708244,0.0,0.0,-0.6,0.0,0.0006687641143798828,0.0006690025329589844,0.0035529136657714844,0
1.5097284317016602,0.009121963754296303,0.0046204859390854836,-0.4244771897792816,0.0029434706481590296,0.6968059675981348,-0.007255929987877607,0.008734559640288353,-0.0038315653800964355,0.0,0.0,-0.6,0.0,0.0007977485656738281,0.0007982254028320312,0.003615856170654297,0
1.5199980735778809,0.00916751567274332,0.004714902024716139,-0.42611902952194214,0.0028976595579526536,0.6968705588111535,-0.0074324109591543674,0.008604229427874088,-0.0037687181029468775,0.0,0.0,-0.6,0.0,0.0008893013000488281,0.0008897781372070312,0.0036916732788085938,0
1.5298800468444824,0.009213610552251339,0.0048086377792060375,-0.42773792147636414,0.0028656591978787854,0.6969285178107255,-0.007595736533403397,0.008522462099790573,-0.003712724894285202,0.0,0.0,-0.6,0.0,0.000743865966796875,0.0007443428039550781,0.003681182861328125,0
1.5398356914520264,0.009311245754361153,0.004992692731320858,-0.43091002106666565,0.0027780786212944354,0.6969987845034645,-0.00760796619579196,0.00853246171027422,-0.0036406870931386948,0.0,0.0,-0.6,0.0,0.000812530517578125,0.0008132457733154297,0.003589630126953125,0
1.5499436855316162,0.009362583979964256,0.005081643350422382,-0.43246132135391235,0.002742758306183232,0.6970705740397145,-0.0075029050931334496,0.008543815463781357,-0.0035770153626799583,0.0,0.0,-0.6,0.0,0.0008156299591064453,0.0008170604705810547,0.003670930862426758,0
1.5597846508026123,0.009414257481694221,0.0051680332981050014,-0.4339996874332428,0.002707389126372571,0.6971383192395156,-0.0073667485266923904,0.008566243574023247,-0.003519181627780199,0.0,0.0,-0.6,0.0,0.0007178783416748047,0.0007185935974121094,0.0033130645751953125,0
1.5699143409729004,0.00946727953851223,0.0052536167204380035,-0.4355156421661377,0.0026687606217849513,0.697206999467516,-0.007258822210133076,0.008550072088837624,-0.0034642124082893133,0.0,0.0,-0.6,0.0,0.0008072853088378906,0.0008077621459960938,0.003587007522583008,0
1.5797996520996094,0.00957595743238926,0.005423868075013161,-0.4384802579879761,0.0026307542148767053,0.69728915708167,-0.007213761564344168,0.008478319272398949,-0.0034114813897758722,0.0,0.0,-0.6,0.0,0.0006670951843261719,0.000667572021484375,0.003345489501953125,0
1.5898675918579102,0.009631448425352573,0.005507222376763821,-0.43992963433265686,0.002623879126008607,0.69736887636777,-0.007094597909599543,0.008382005617022514,-0.0033719916827976704,0.0,0.0,-0.6,0.0,0.0007658004760742188,0.0007662773132324219,0.003444671630859375,0
1.6000053882598877,0.009688114747405052,0.005588760133832693,-0.44135722517967224,0.002608432175066931,0.6974461580570817,-0.006870027631521225,0.008290126919746399,-0.0033385562710464,0.0,0.0,-0.6,0.0,0.0008208751678466797,0.0008218288421630859,0.003490447998046875,0
1.6098246574401855,0.009799953550100327,0.005745625123381615,-0.4441470503807068,0.00254416923711868,0.6975407904928751,-0.006541071925312281,0.007914930582046509,-0.0032910529989749193,0.0,0.0,-0.6,0.0,0.0006785392761230469,0.00067901611328125,0.003483295440673828,0
1.6198482513427734,0.009854410775005817,0.005822396371513605,-0.4455091059207916,0.0025188371171684814,0.6976323557880535,-0.006286783143877983,0.007484067231416702,-0.0032483008690178394,0.0,0.0,-0.6,0.0,0.0008172988891601562,0.0008180141448974609,0.0035440921783447266,0
1.6299107074737549,0.009904405102133751,0.005897796247154474,-0.44682776927948,0.0025052060614144025,0.6977286114337381,-0.0060320328921079636,0.007044448517262936,-0.0032132628839462996,0.0,0.0,-0.6,0.0,0.0008087158203125,0.0008089542388916016,0.0037403106689453125,0
1.6397850513458252,0.009851052425801754,0.006215662695467472,-0.44842731952667236,0.002475177803063594,0.6978213302488221,-0.0059931473806500435,0.00649931700900197,-0.0031774756498634815,0.0,0.0,-0.6,0.0,0.0006799697875976562,0.0006802082061767578,0.0033740997314453125,0
1.649902582168579,0.00975029543042183,0.006831339560449123,-0.4515414237976074,0.0024119377394838265,0.6979111792674672,-0.006137327291071415,0.005927783902734518,-0.003128709737211466,0.0,0.0,-0.6,0.0,0.0008213520050048828,0.0008218288421630859,0.0036652088165283203,0
1.6597402095794678,0.009703598916530609,0.007130407728254795,-0.4530574679374695,0.00239392666125049,0.6979929119359395,-0.006345593370497227,0.005318835377693176,-0.0030878193210810423,0.0,0.0,-0.6,0.0,0.0006299018859863281,0.0006303787231445312,0.0033795833587646484,0
1.6699042320251465,0.009658072143793106,0.0074236588552594185,-0.454547256231308,0.002375779643823355,0.6980643771024991,-0.006620746571570635,0.0047047995030879974,-0.003052390879020095,0.0,0.0,-0.6,0.0,0.0008161067962646484,0.0008165836334228516,0.003637552261352539,0
1.6800575256347656,0.009613861329853535,0.0077118296176195145,-0.45601189136505127,0.0023373200084790095,0.6981283183172992,-0.006934233009815216,0.00409832363948226,-0.0030131684616208076,0.0,0.0,-0.6,0.0,0.0008924007415771484,0.0008931159973144531,0.00374603271484375,0
1.6898462772369385,0.009529461152851582,0.008271032944321632,-0.45886632800102234,0.002261121946621118,0.6981981270336333,-0.007214210461825132,0.003392485436052084,-0.0029571386985480785,0.0,0.0,-0.6,0.0,0.000644683837890625,0.0006451606750488281,0.0033702850341796875,0
1.6998825073242188,0.009489474818110466,0.008539843373000622,-0.46027830243110657,0.002241476417464105,0.6982625273053972,-0.00741635262966156,0.0027777585200965405,-0.002910550683736801,0.0,0.0,-0.6,0.0,0.0008306503295898438,0.0008313655853271484,0.0035142898559570312,0
1.7099475860595703,0.009450860321521759,0.00880348403006792,-0.46166619658470154,0.0022069308508086975,0.6983201895229758,-0.007573053240776062,0.002193683758378029,-0.0028649845626205206,0.0,0.0,-0.6,0.0,0.0008175373077392578,0.0008182525634765625,0.004156351089477539,0
1.7197868824005127,0.009414040483534336,0.009061113931238651,-0.46302878856658936,0.002191427420076343,0.6983802743680483,-0.0076725073158741,0.001698522362858057,-0.0028272743802517653,0.0,0.0,-0.6,0.0,0.0007390975952148438,0.0007395744323730469,0.0033349990844726562,0
1.7299230098724365,0.009378298185765743,0.009314130060374737,-0.46436646580696106,0.002170476598041882,0.6984360102725828,-0.007813824340701103,0.0011491751065477729,-0.0027930208016186953,0.0,0.0,-0.6,0.0,0.0008041858673095703,0.0008046627044677734,0.0037696361541748047,0
1.7398054599761963,0.009311405010521412,0.009809451177716255,-0.46696725487709045,0.0021079774870051567,0.6985079836795622,-0.008091055788099766,0.000542741094250232,-0.002745606005191803,0.0,0.0,-0.6,0.0,0.0010237693786621094,0.0010242462158203125,0.005553722381591797,0
1.7498154640197754,0.009279139339923859,0.010051075369119644,-0.468232125043869,0.002070704238348119,0.698573924254981,-0.008348561823368073,-6.800928531447425e-05,-0.0026984382420778275,0.0,0.0,-0.6,0.0,0.001012563705444336,0.001013040542602539,0.005496501922607422,0
1.7600579261779785,0.009247859939932823,0.010287943296134472,-0.46947431564331055,0.0020427768422944838,0.698635907344517,-0.008526187390089035,-0.0006272837053984404,-0.002654948038980365,0.0,0.0,-0.6,0.0,0.0013539791107177734,0.0013551712036132812,0.006392955780029297,0
1.7700109481811523,0.009219098836183548,0.010520660318434238,-0.47069433331489563,0.0020191028017395004,0.6986958119334293,-0.008755367249250412,-0.0010737115517258644,-0.002615627134218812,0.0,0.0,-0.6,0.0,0.0007760524749755859,0.0007765293121337891,0.004494190216064453,0
1.7800607681274414,0.009165958501398563,0.010976670309901237,-0.4731057584285736,0.001996573335007533,0.6987686226311096,-0.009156135842204094,-0.0016368883661925793,-0.0025796538684517145,0.0,0.0,-0.6,0.0,0.0012209415435791016,0.0012216567993164062,0.0051953792572021484,0
1.7898375988006592,0.009140287525951862,0.011200511828064919,-0.4742770791053772,0.001942257275256915,0.6988386101084498,-0.009515577927231789,-0.002095405478030443,-0.0025341040454804897,0.0,0.0,-0.6,0.0,0.0008733272552490234,0.0008740425109863281,0.004033803939819336,0
1.799830675125122,0.009115624241530895,0.011420628055930138,-0.4754261374473572,0.0019240804064471588,0.6989063618472443,-0.009812149219214916,-0.0024757885839790106,-0.0024954029358923435,0.0,0.0,-0.6,0.0,0.0007157325744628906,0.0007178783416748047,0.003504514694213867,0
1.8100039958953857,0.00906731653958559,0.011846623383462429,-0.477657288312912,0.0018800309414310262,0.698990691435138,-0.00990928802639246,-0.002916776342317462,-0.00245179352350533,0.0,0.0,-0.6,0.0,0.0008873939514160156,0.0008876323699951172,0.0040323734283447266,0
1.8197267055511475,0.00904456153512001,0.012053496204316616,-0.47873827815055847,0.0018732781698969254,0.6990783362724834,-0.009952383115887642,-0.0032202028669416904,-0.0024187348317354918,0.0,0.0,-0.6,0.0,0.0006575584411621094,0.0006580352783203125,0.0034084320068359375,0
1.8299267292022705,0.009022697806358337,0.012256044894456863,-0.47979623079299927,0.0018548270609473098,0.6991636252983491,-0.009947883896529675,-0.0034933725837618113,-0.002388674532994628,0.0,0.0,-0.6,0.0,0.0007722377777099609,0.0007727146148681641,0.0035598278045654297,0
1.8398351669311523,0.009000899270176888,0.012455286458134651,-0.48083317279815674,0.00182232022958873,0.6992450734912289,-0.009978491812944412,-0.0037541731726378202,-0.002355442149564624,0.0,0.0,-0.6,0.0,0.0008115768432617188,0.0008120536804199219,0.0037717819213867188,0
1.8498785495758057,0.008960607461631298,0.012846485711634159,-0.4828915596008301,0.0017615741096195508,0.6993339023837285,-0.009978736750781536,-0.0039725350216031075,-0.002309399889782071,0.0,0.0,-0.6,0.0,0.0007109642028808594,0.0007116794586181641,0.0035545825958251953,0
1.8598778247833252,0.008942246437072754,0.013037221506237984,-0.48388925194740295,0.0017375017305040093,0.6994184995983017,-0.010003721341490746,-0.0041313739493489265,-0.0022681429982185364,0.0,0.0,-0.6,0.0,0.0008413791656494141,0.0008418560028076172,0.0037255287170410156,0
1.8698770999908447,0.008925123140215874,0.013224140740931034,-0.48486679792404175,0.0017283320039464976,0.6994994918697572,-0.009924557991325855,-0.004198605660349131,-0.0022358247078955173,0.0,0.0,-0.6,0.0,0.0008587837219238281,0.0008592605590820312,0.003973722457885742,0
1.8798770904541016,0.008909008465707302,0.013406779617071152,-0.4858233332633972,0.0017052355235272838,0.699582078338428,-0.009820072911679745,-0.004289980512112379,-0.002204540651291609,0.0,0.0,-0.6,0.0,0.0007498264312744141,0.0007503032684326172,0.0035507678985595703,0
1.8898773193359375,0.00889286957681179,0.013585107401013374,-0.48675966262817383,0.0016767200799633342,0.6996593806115201,-0.009681262075901031,-0.004451312590390444,-0.002171948552131653,0.0,0.0,-0.6,0.0,0.0008454322814941406,0.0008459091186523438,0.003785848617553711,0
1.8997979164123535,0.00885925441980362,0.013931241817772388,-0.48857438564300537,0.0016486232327476002,0.6997495311033324,-0.009467888623476028,-0.004679499194025993,-0.002138597657904029,0.0,0.0,-0.6,0.0,0.0009167194366455078,0.0009176731109619141,0.004709005355834961,0
1.9099311828613281,0.008842426352202892,0.014098761603236198,-0.4894530177116394,0.0016319051795534284,0.6998353736863605,-0.009172643534839153,-0.004878518637269735,-0.002108982764184475,0.0,0.0,-0.6,0.0,0.0009262561798095703,0.000926971435546875,0.0037517547607421875,0
1.919956922531128,0.008830303326249123,0.014260618016123772,-0.490315318107605,0.001607728515829428,0.6999149173505892,-0.008714859373867512,-0.004971166141331196,-0.002079186262562871,0.0,0.0,-0.6,0.0,0.0008482933044433594,0.0008487701416015625,0.0036814212799072266,0
1.9298439025878906,0.008810610510408878,0.014571052975952625,-0.49198535084724426,0.0015844436834280713,0.7000082812071384,-0.008176327683031559,-0.004956359509378672,-0.0020495967473834753,0.0,0.0,-0.6,0.0,0.0006909370422363281,0.0006914138793945312,0.0035920143127441406,0
1.9399847984313965,0.008800424635410309,0.014720055274665356,-0.49279189109802246,0.001565271602442642,0.7001032745839753,-0.007559120189398527,-0.005007913336157799,-0.0020216945558786392,0.0,0.0,-0.6,0.0,0.0012357234954833984,0.0012364387512207031,0.004907369613647461,0
1.9499588012695312,0.008789497427642345,0.014862865209579468,-0.49357882142066956,0.0015451428519357865,0.700197046045535,-0.006887790746986866,-0.0049979230388998985,-0.0019946147222071886,0.0,0.0,-0.6,0.0,0.0009851455688476562,0.000985860824584961,0.003996372222900391,0
1.9597117900848389,0.008779672905802727,0.015001059509813786,-0.4943476617336273,0.001527050456859581,0.7002876436007244,-0.006306735333055258,-0.004908550996333361,-0.0019688743632286787,0.0,0.0,-0.6,0.0,0.0007152557373046875,0.0007154941558837891,0.0036759376525878906,0
1.9700982570648193,0.008761466480791569,0.015268986113369465,-0.49583497643470764,0.0014991057134751695,0.7003868595872873,-0.005731204058974981,-0.0048774126917123795,-0.0019403767073526978,0.0,0.0,-0.6,0.0,0.0014352798461914062,0.001435995101928711,0.005021572113037109,0
1.9797658920288086,0.008751899935305119,0.015396075323224068,-0.4965531826019287,0.001461607905024667,0.7004825888175208,-0.005139803513884544,-0.004862723872065544,-0.0019063666695728898,0.0,0.0,-0.6,0.0,0.0006999969482421875,0.0007004737854003906,0.0033729076385498047,0
1.989896535873413,0.008746490813791752,0.015518991276621819,-0.4972759485244751,0.0014251861124367738,0.7005703045329623,-0.004574169404804707,-0.004838207736611366,-0.0018689014250412583,0.0,0.0,-0.6,0.0,0.0008175373077392578,0.0008180141448974609,0.0036847591400146484,0
1.9998927116394043,0.008741137571632862,0.015638448297977448,-0.49798300862312317,0.0014075255382872496,0.7006518828429744,-0.004089429508894682,-0.004819411784410477,-0.0018360530957579613,0.0,0.0,-0.6,0.0,0.0008416175842285156,0.0008420944213867188,0.0038144588470458984,0
2.0097100734710693,0.008736535906791687,0.01575380750000477,-0.4986736476421356,0.0013951705571674138,0.7007328674408213,-0.0035693394020199776,-0.00468932231888175,-0.001808426110073924,0.0,0.0,-0.6,0.0,0.0006241798400878906,0.0006246566772460938,0.003241300582885742,0
2.0198326110839844,0.008732181042432785,0.015973757952451706,-0.5000044703483582,0.0013450750946204597,0.7008321063119286,-0.0030503198504447937,-0.004355976358056068,-0.0017703014891594648,0.0,0.0,-0.6,0.0,0.0008351802825927734,0.0008356571197509766,0.0035049915313720703,0
2.0299365520477295,0.008731587789952755,0.016078930348157883,-0.5006447434425354,0.0013113622009338682,0.7009260265467717,-0.0025380419101566076,-0.0040156040340662,-0.001730971853248775,0.0,0.0,-0.6,0.0,0.0009102821350097656,0.0009107589721679688,0.0038101673126220703,0
2.0397379398345947,0.008661982603371143,0.01621796190738678,-0.501523494720459,0.001288121459303713,0.7010042134720641,-0.0019970687571913004,-0.0037296165246516466,-0.001694725826382637,0.0,0.0,-0.6,0.0,0.0006625652313232422,0.0006630420684814453,0.0033440589904785156,0
2.049910068511963,0.008528389967978,0.016475671902298927,-0.5032173991203308,0.0012688885721994355,0.7010841091920373,-0.0011930775362998247,-0.0035721398890018463,-0.0016621412942185998,0.0,0.0,-0.6,0.0,0.0008978843688964844,0.0008985996246337891,0.0035648345947265625,0
2.0597546100616455,0.008464695885777473,0.016595544293522835,-0.5040525794029236,0.0012569531391733034,0.7011554156341951,-0.00044871700811199844,-0.003531981958076358,-0.0016348563367500901,0.0,0.0,-0.6,0.0,0.0007648468017578125,0.0007653236389160156,0.003844022750854492,0
2.069823741912842,0.008402423933148384,0.01670975238084793,-0.5048660039901733,0.0012572371900593353,0.7012231664773555,0.00021087595087010413,-0.003530938643962145,-0.0016158632934093475,0.0,0.0,-0.6,0.0,0.0008358955383300781,0.0008363723754882812,0.004096031188964844,0
2.079954147338867,0.008341397158801556,0.016819223761558533,-0.5056591629981995,0.0012362838516568827,0.7012809276402378,0.0007829239475540817,-0.0035720437299460173,-0.0015947107458487153,0.0,0.0,-0.6,0.0,0.0009553432464599609,0.0009591579437255859,0.0038754940032958984,0
2.089787244796753,0.008223718963563442,0.017025141045451164,-0.507185697555542,0.0012082600081577243,0.7013440272442292,0.0013291466748341918,-0.0034984848462045193,-0.00156939506996423,0.0,0.0,-0.6,0.0,0.0007002353668212891,0.0007004737854003906,0.0035042762756347656,0
2.0998079776763916,0.008169488050043583,0.017121225595474243,-0.5079187750816345,0.0011852555552643125,0.7014081357211193,0.0018624296644702554,-0.003283717669546604,-0.001543047372251749,0.0,0.0,-0.6,0.0,0.0008199214935302734,0.0008203983306884766,0.0036160945892333984,0
2.109858989715576,0.008118421770632267,0.01721329614520073,-0.5086323618888855,0.0011866615852406713,0.7014662344727942,0.00228863675147295,-0.003056781366467476,-0.0015251312870532274,0.0,0.0,-0.6,0.0,0.0007729530334472656,0.0007734298706054688,0.0037963390350341797,0
2.119779586791992,0.008069714531302452,0.017301447689533234,-0.5093276500701904,0.0011825421548568643,0.7015199233331633,0.0026807032991200686,-0.002834170125424862,-0.0015110451495274901,0.0,0.0,-0.6,0.0,0.0007646083831787109,0.0007650852203369141,0.003403186798095703,0
2.1299448013305664,0.007978902198374271,0.01746584102511406,-0.5106995105743408,0.0011329017851735921,0.701574076427126,0.0031404371839016676,-0.0025841796305030584,-0.0014825697289779782,0.0,0.0,-0.6,0.0,0.0008330345153808594,0.0008332729339599609,0.0038869380950927734,0
2.1397149562835693,0.007937637157738209,0.0175414327532053,-0.5113754272460938,0.001118345340312925,0.701622924135781,0.0036282469518482685,-0.0022547165863215923,-0.0014571783831343055,0.0,0.0,-0.6,0.0,0.000621795654296875,0.0006225109100341797,0.0034105777740478516,0
2.1497809886932373,0.007899122312664986,0.017611606046557426,-0.5120341777801514,0.001104770795043152,0.7016682995478866,0.004074184224009514,-0.001965518342331052,-0.0014343139482662082,0.0,0.0,-0.6,0.0,0.0008215904235839844,0.0008218288421630859,0.0036630630493164062,0
2.159947633743286,0.007862421683967113,0.01767769455909729,-0.5126748085021973,0.0011007934815636586,0.7017160501075178,0.004422035533934832,-0.0017154536908492446,-0.001416817307472229,0.0,0.0,-0.6,0.0,0.0009522438049316406,0.0009534358978271484,0.004035472869873047,0
2.169820547103882,0.007797883823513985,0.01779847964644432,-0.51390141248703,0.001105439610555105,0.7017723726220554,0.004678006749600172,-0.0012942549074068666,-0.0014063119888305664,0.0,0.0,-0.6,0.0,0.0005927085876464844,0.0005929470062255859,0.003401041030883789,0
2.1799449920654297,0.007769647054374218,0.017854638397693634,-0.5144911408424377,0.001095120367437977,0.7018199221146852,0.0048982505686581135,-0.0009170708945021033,-0.0013950885040685534,0.0,0.0,-0.6,0.0,0.0008647441864013672,0.0008652210235595703,0.0037212371826171875,0
2.189840793609619,0.007743257097899914,0.017907874658703804,-0.5150655508041382,0.0010740033792085502,0.7018668452430241,0.0050478787161409855,-0.0006168155814521015,-0.0013793131802231073,0.0,0.0,-0.6,0.0,0.0008156299591064453,0.0008161067962646484,0.0038230419158935547,0
2.1997761726379395,0.007717463653534651,0.017957985401153564,-0.5156238675117493,0.0010570846304451909,0.7019125186078592,0.005174525547772646,-0.00042079732520505786,-0.0013619259698316455,0.0,0.0,-0.6,0.0,0.000843048095703125,0.0008435249328613281,0.003545999526977539,0
2.209792375564575,0.007666667923331261,0.018044278025627136,-0.516677975654602,0.0010246173910575833,0.7019643461526205,0.005560239776968956,-0.00025971425930038095,-0.0013375796843320131,0.0,0.0,-0.6,0.0,0.0008478164672851562,0.0008482933044433594,0.003855466842651367,0
2.219744920730591,0.007642501499503851,0.018079310655593872,-0.5171821713447571,0.0010218480175974989,0.7020186640596339,0.005891231819987297,-0.0001651917555136606,-0.0013194988714531064,0.0,0.0,-0.6,0.0,0.0006475448608398438,0.0006480216979980469,0.003604412078857422,0
2.2299411296844482,0.007619298528879881,0.01811082288622856,-0.5176693797111511,0.0010022820059086238,0.702079523800477,0.006144537590444088,-1.6709333067410626e-05,-0.0012995048891752958,0.0,0.0,-0.6,0.0,0.0010268688201904297,0.0010273456573486328,0.004315853118896484,0
2.2400336265563965,0.0075982920825481415,0.01813887618482113,-0.5181410908699036,0.0009773219087982805,0.7021354312084712,0.00637039914727211,0.00017787593242246658,-0.0012761491816490889,0.0,0.0,-0.6,0.0,0.0009262561798095703,0.000926971435546875,0.003962278366088867,0
2.249878406524658,0.007561717182397842,0.01818455383181572,-0.5190451741218567,0.0009274110781961367,0.7021955419347579,0.006665307562798262,0.0004180306859780103,-0.001241083606146276,0.0,0.0,-0.6,0.0,0.0006699562072753906,0.0006701946258544922,0.003372669219970703,0
